{"source":"GeoNames cities15000","sourceUrl":"https://download.geonames.org/export/dump/","license":"Creative Commons Attribution 4.0","licenseUrl":"https://creativecommons.org/licenses/by/4.0/","generatedAt":"2026-07-23T10:30:33.538Z","selection":"Top 5,000 populated places outside India by GeoNames population, excluding records without a positive population.","cities":[{"id":1796236,"name":"Shanghai","countryCode":"CN","countryName":"China","continent":"AS","adminName":"Shanghai","population":24874500,"latitude":31.2222,"longitude":121.4581,"rank":1,"slug":"shanghai","countrySlug":"china","adminSlug":"shanghai"},{"id":1816670,"name":"Beijing","countryCode":"CN","countryName":"China","continent":"AS","adminName":"Beijing","population":18960744,"latitude":39.9075,"longitude":116.3972,"rank":2,"slug":"beijing","countrySlug":"china","adminSlug":"beijing"},{"id":1795565,"name":"Shenzhen","countryCode":"CN","countryName":"China","continent":"AS","adminName":"Guangdong","population":17494398,"latitude":22.5455,"longitude":114.0683,"rank":3,"slug":"shenzhen","countrySlug":"china","adminSlug":"guangdong"},{"id":1809858,"name":"Guangzhou","countryCode":"CN","countryName":"China","continent":"AS","adminName":"Guangdong","population":16096724,"latitude":23.1167,"longitude":113.25,"rank":4,"slug":"guangzhou","countrySlug":"china","adminSlug":"guangdong"},{"id":2314302,"name":"Kinshasa","countryCode":"CD","countryName":"Democratic Republic of the Congo","continent":"AF","adminName":"Kinshasa","population":16000000,"latitude":-4.3276,"longitude":15.3136,"rank":5,"slug":"kinshasa","countrySlug":"democratic-republic-of-the-congo","adminSlug":"kinshasa"},{"id":745044,"name":"Istanbul","countryCode":"TR","countryName":"Turkey","continent":"AS","adminName":"Istanbul","population":15701602,"latitude":41.0138,"longitude":28.9497,"rank":6,"slug":"istanbul","countrySlug":"turkey","adminSlug":"istanbul"},{"id":2332459,"name":"Lagos","countryCode":"NG","countryName":"Nigeria","continent":"AF","adminName":"Lagos","population":15388000,"latitude":6.4541,"longitude":3.3947,"rank":7,"slug":"lagos","countrySlug":"nigeria","adminSlug":"lagos"},{"id":1566083,"name":"Ho Chi Minh City","countryCode":"VN","countryName":"Vietnam","continent":"AS","adminName":"Ho Chi Minh City (HCMC)","population":14002598,"latitude":10.823,"longitude":106.6296,"rank":8,"slug":"ho-chi-minh-city","countrySlug":"vietnam","adminSlug":"ho-chi-minh-city-hcmc"},{"id":1815286,"name":"Chengdu","countryCode":"CN","countryName":"China","continent":"AS","adminName":"Sichuan","population":13568357,"latitude":30.6667,"longitude":104.0667,"rank":9,"slug":"chengdu","countrySlug":"china","adminSlug":"sichuan"},{"id":1172451,"name":"Lahore","countryCode":"PK","countryName":"Pakistan","continent":"AS","adminName":"Punjab","population":13004135,"latitude":31.558,"longitude":74.3507,"rank":10,"slug":"lahore","countrySlug":"pakistan","adminSlug":"punjab"},{"id":3448439,"name":"Sao Paulo","countryCode":"BR","countryName":"Brazil","continent":"SA","adminName":"Sao Paulo","population":12400232,"latitude":-23.5475,"longitude":-46.6361,"rank":11,"slug":"sao-paulo","countrySlug":"brazil","adminSlug":"sao-paulo"},{"id":3530597,"name":"Mexico City","countryCode":"MX","countryName":"Mexico","continent":"NA","adminName":"Mexico City","population":12294193,"latitude":19.4285,"longitude":-99.1277,"rank":12,"slug":"mexico-city","countrySlug":"mexico","adminSlug":"mexico-city"},{"id":1174872,"name":"Karachi","countryCode":"PK","countryName":"Pakistan","continent":"AS","adminName":"Sindh","population":11624219,"latitude":24.8608,"longitude":67.0104,"rank":13,"slug":"karachi","countrySlug":"pakistan","adminSlug":"sindh"},{"id":1792947,"name":"Tianjin","countryCode":"CN","countryName":"China","continent":"AS","adminName":"Tianjin","population":11090314,"latitude":39.1422,"longitude":117.1767,"rank":14,"slug":"tianjin","countrySlug":"china","adminSlug":"tianjin"},{"id":1791247,"name":"Wuhan","countryCode":"CN","countryName":"China","continent":"AS","adminName":"Hubei","population":10392693,"latitude":30.5833,"longitude":114.2667,"rank":15,"slug":"wuhan","countrySlug":"china","adminSlug":"hubei"},{"id":524901,"name":"Moscow","countryCode":"RU","countryName":"Russia","continent":"EU","adminName":"Moscow","population":10381222,"latitude":55.752,"longitude":37.6178,"rank":16,"slug":"moscow","countrySlug":"russia","adminSlug":"moscow"},{"id":1185241,"name":"Dhaka","countryCode":"BD","countryName":"Bangladesh","continent":"AS","adminName":"Dhaka Division","population":10356500,"latitude":23.7104,"longitude":90.4074,"rank":17,"slug":"dhaka","countrySlug":"bangladesh","adminSlug":"dhaka-division"},{"id":1835848,"name":"Seoul","countryCode":"KR","countryName":"South Korea","continent":"AS","adminName":"Seoul","population":10349312,"latitude":37.566,"longitude":126.9784,"rank":18,"slug":"seoul","countrySlug":"south-korea","adminSlug":"seoul"},{"id":1850147,"name":"Tokyo","countryCode":"JP","countryName":"Japan","continent":"AS","adminName":"Tokyo","population":9733276,"latitude":35.6895,"longitude":139.6917,"rank":19,"slug":"tokyo","countrySlug":"japan","adminSlug":"tokyo"},{"id":1812545,"name":"Dongguan","countryCode":"CN","countryName":"China","continent":"AS","adminName":"Guangdong","population":9644871,"latitude":23.018,"longitude":113.7487,"rank":20,"slug":"dongguan","countrySlug":"china","adminSlug":"guangdong"},{"id":360630,"name":"Cairo","countryCode":"EG","countryName":"Egypt","continent":"AF","adminName":"Cairo","population":9606916,"latitude":30.0626,"longitude":31.2497,"rank":21,"slug":"cairo","countrySlug":"egypt","adminSlug":"cairo"},{"id":1790630,"name":"Xi'an","countryCode":"CN","countryName":"China","continent":"AS","adminName":"Shaanxi","population":9600000,"latitude":34.2583,"longitude":108.9286,"rank":22,"slug":"xi-an","countrySlug":"china","adminSlug":"shaanxi"},{"id":993800,"name":"Johannesburg","countryCode":"ZA","countryName":"South Africa","continent":"AF","adminName":"Gauteng","population":9418183,"latitude":-26.2023,"longitude":28.0436,"rank":23,"slug":"johannesburg","countrySlug":"south-africa","adminSlug":"gauteng"},{"id":1799962,"name":"Nanjing","countryCode":"CN","countryName":"China","continent":"AS","adminName":"Jiangsu","population":9314685,"latitude":32.0617,"longitude":118.7778,"rank":24,"slug":"nanjing","countrySlug":"china","adminSlug":"jiangsu"},{"id":1808926,"name":"Hangzhou","countryCode":"CN","countryName":"China","continent":"AS","adminName":"Zhejiang","population":9236032,"latitude":30.2936,"longitude":120.1614,"rank":25,"slug":"hangzhou","countrySlug":"china","adminSlug":"zhejiang"},{"id":1811103,"name":"Foshan","countryCode":"CN","countryName":"China","continent":"AS","adminName":"Guangdong","population":9042509,"latitude":23.0268,"longitude":113.1315,"rank":26,"slug":"foshan","countrySlug":"china","adminSlug":"guangdong"},{"id":2643743,"name":"London","countryCode":"GB","countryName":"United Kingdom","continent":"EU","adminName":"England","population":8961989,"latitude":51.5085,"longitude":-0.1257,"rank":27,"slug":"london","countrySlug":"united-kingdom","adminSlug":"england"},{"id":5128581,"name":"New York City","countryCode":"US","countryName":"United States","continent":"NA","adminName":"New York","population":8804190,"latitude":40.7143,"longitude":-74.006,"rank":28,"slug":"new-york-city","countrySlug":"united-states","adminSlug":"new-york"},{"id":1642911,"name":"Jakarta","countryCode":"ID","countryName":"Indonesia","continent":"AS","adminName":"Jakarta","population":8540121,"latitude":-6.2146,"longitude":106.8451,"rank":29,"slug":"jakarta","countrySlug":"indonesia","adminSlug":"jakarta"},{"id":1581130,"name":"Hanoi","countryCode":"VN","countryName":"Vietnam","continent":"AS","adminName":"Hanoi","population":8053663,"latitude":21.0245,"longitude":105.8412,"rank":30,"slug":"hanoi","countrySlug":"vietnam","adminSlug":"hanoi"},{"id":1668341,"name":"Taipei","countryCode":"TW","countryName":"Taiwan","continent":"AS","adminName":"Taiwan","population":7871900,"latitude":25.0531,"longitude":121.5264,"rank":31,"slug":"taipei","countrySlug":"taiwan","adminSlug":"taiwan"},{"id":3936456,"name":"Lima","countryCode":"PE","countryName":"Peru","continent":"SA","adminName":"Lima Province","population":7737002,"latitude":-12.0432,"longitude":-77.0282,"rank":32,"slug":"lima","countrySlug":"peru","adminSlug":"lima-province"},{"id":3688689,"name":"Bogota","countryCode":"CO","countryName":"Colombia","continent":"SA","adminName":"Bogota D.C.","population":7674366,"latitude":4.6097,"longitude":-74.0817,"rank":33,"slug":"bogota","countrySlug":"colombia","adminSlug":"bogota-d-c"},{"id":1814906,"name":"Chongqing","countryCode":"CN","countryName":"China","continent":"AS","adminName":"Chongqing","population":7457599,"latitude":29.5603,"longitude":106.5577,"rank":34,"slug":"chongqing","countrySlug":"china","adminSlug":"chongqing"},{"id":1819729,"name":"Hong Kong","countryCode":"HK","countryName":"Hong Kong","continent":"AS","adminName":"","population":7396076,"latitude":22.2783,"longitude":114.1747,"rank":35,"slug":"hong-kong","countrySlug":"hong-kong","adminSlug":""},{"id":98182,"name":"Baghdad","countryCode":"IQ","countryName":"Iraq","continent":"AS","adminName":"Baghdad","population":7216000,"latitude":33.3406,"longitude":44.4009,"rank":36,"slug":"baghdad","countrySlug":"iraq","adminSlug":"baghdad"},{"id":1790842,"name":"Wuzhong","countryCode":"CN","countryName":"China","continent":"AS","adminName":"Ningxia","population":7202654,"latitude":37.9867,"longitude":106.201,"rank":37,"slug":"wuzhong","countrySlug":"china","adminSlug":"ningxia"},{"id":1797929,"name":"Qingdao","countryCode":"CN","countryName":"China","continent":"AS","adminName":"Shandong","population":7172451,"latitude":36.0649,"longitude":120.3804,"rank":38,"slug":"qingdao","countrySlug":"china","adminSlug":"shandong"},{"id":112931,"name":"Tehran","countryCode":"IR","countryName":"Iran","continent":"AS","adminName":"Tehran","population":7153309,"latitude":35.6944,"longitude":51.4215,"rank":39,"slug":"tehran","countrySlug":"iran","adminSlug":"tehran"},{"id":2034937,"name":"Shenyang","countryCode":"CN","countryName":"China","continent":"AS","adminName":"Liaoning","population":7050000,"latitude":41.7922,"longitude":123.4328,"rank":40,"slug":"shenyang","countrySlug":"china","adminSlug":"liaoning"},{"id":3451190,"name":"Rio de Janeiro","countryCode":"BR","countryName":"Brazil","continent":"SA","adminName":"Rio de Janeiro","population":6747815,"latitude":-22.9064,"longitude":-43.1822,"rank":41,"slug":"rio-de-janeiro","countrySlug":"brazil","adminSlug":"rio-de-janeiro"},{"id":1886760,"name":"Suzhou","countryCode":"CN","countryName":"China","continent":"AS","adminName":"Jiangsu","population":6715559,"latitude":31.3041,"longitude":120.5954,"rank":42,"slug":"suzhou","countrySlug":"china","adminSlug":"jiangsu"},{"id":11072148,"name":"Puxi","countryCode":"CN","countryName":"China","continent":"AS","adminName":"Shanghai","population":6683712,"latitude":31.2441,"longitude":121.4659,"rank":43,"slug":"puxi","countrySlug":"china","adminSlug":"shanghai"},{"id":2293538,"name":"Abidjan","countryCode":"CI","countryName":"Ivory Coast","continent":"AF","adminName":"Abidjan Autonomous District","population":6321017,"latitude":5.3544,"longitude":-4.0017,"rank":44,"slug":"abidjan","countrySlug":"ivory-coast","adminSlug":"abidjan-autonomous-district"},{"id":1798524,"name":"Pudong","countryCode":"CN","countryName":"China","continent":"AS","adminName":"Shanghai","population":5681512,"latitude":31.24,"longitude":121.5009,"rank":45,"slug":"pudong","countrySlug":"china","adminSlug":"shanghai"},{"id":2147714,"name":"Sydney","countryCode":"AU","countryName":"Australia","continent":"OC","adminName":"New South Wales","population":5638830,"latitude":-33.8678,"longitude":151.2073,"rank":46,"slug":"sydney","countrySlug":"australia","adminSlug":"new-south-wales"},{"id":1880252,"name":"Singapore","countryCode":"SG","countryName":"Singapore","continent":"AS","adminName":"","population":5638700,"latitude":1.2897,"longitude":103.8501,"rank":47,"slug":"singapore","countrySlug":"singapore","adminSlug":""},{"id":2158177,"name":"Melbourne","countryCode":"AU","countryName":"Australia","continent":"OC","adminName":"Victoria","population":5435590,"latitude":-37.814,"longitude":144.9633,"rank":48,"slug":"melbourne","countrySlug":"australia","adminSlug":"victoria"},{"id":160263,"name":"Dar es Salaam","countryCode":"TZ","countryName":"Tanzania","continent":"AF","adminName":"Dar es Salaam Region","population":5383728,"latitude":-6.8235,"longitude":39.2695,"rank":49,"slug":"dar-es-salaam","countrySlug":"tanzania","adminSlug":"dar-es-salaam-region"},{"id":498817,"name":"Saint Petersburg","countryCode":"RU","countryName":"Russia","continent":"EU","adminName":"St.-Petersburg","population":5351935,"latitude":59.9386,"longitude":30.3141,"rank":50,"slug":"saint-petersburg","countrySlug":"russia","adminSlug":"st-petersburg"},{"id":361058,"name":"Alexandria","countryCode":"EG","countryName":"Egypt","continent":"AF","adminName":"Alexandria","population":5263542,"latitude":31.2018,"longitude":29.9158,"rank":51,"slug":"alexandria","countrySlug":"egypt","adminSlug":"alexandria"},{"id":2037013,"name":"Harbin","countryCode":"CN","countryName":"China","continent":"AS","adminName":"Heilongjiang","population":5242897,"latitude":45.75,"longitude":126.65,"rank":52,"slug":"harbin","countrySlug":"china","adminSlug":"heilongjiang"},{"id":1609350,"name":"Bangkok","countryCode":"TH","countryName":"Thailand","continent":"AS","adminName":"Bangkok","population":5104476,"latitude":13.754,"longitude":100.5014,"rank":53,"slug":"bangkok","countrySlug":"thailand","adminSlug":"bangkok"},{"id":1808722,"name":"Hefei","countryCode":"CN","countryName":"China","continent":"AS","adminName":"Anhui","population":5050000,"latitude":31.8639,"longitude":117.2808,"rank":54,"slug":"hefei","countrySlug":"china","adminSlug":"anhui"},{"id":1814087,"name":"Dalian","countryCode":"CN","countryName":"China","continent":"AS","adminName":"Liaoning","population":4913879,"latitude":38.9122,"longitude":121.6022,"rank":55,"slug":"dalian","countrySlug":"china","adminSlug":"liaoning"},{"id":2335204,"name":"Kano","countryCode":"NG","countryName":"Nigeria","continent":"AF","adminName":"Kano State","population":4910000,"latitude":12.0001,"longitude":8.5167,"rank":56,"slug":"kano","countrySlug":"nigeria","adminSlug":"kano-state"},{"id":3871336,"name":"Santiago","countryCode":"CL","countryName":"Chile","continent":"SA","adminName":"Santiago Metropolitan","population":4837295,"latitude":-33.4569,"longitude":-70.6483,"rank":57,"slug":"santiago","countrySlug":"chile","adminSlug":"santiago-metropolitan"},{"id":3369157,"name":"Cape Town","countryCode":"ZA","countryName":"South Africa","continent":"AF","adminName":"Western Cape","population":4772846,"latitude":-33.9258,"longitude":18.4232,"rank":58,"slug":"cape-town","countrySlug":"south-africa","adminSlug":"western-cape"},{"id":1168197,"name":"Peshawar","countryCode":"PK","countryName":"Pakistan","continent":"AS","adminName":"Khyber Pakhtunkhwa","population":4758762,"latitude":34.008,"longitude":71.5785,"rank":59,"slug":"peshawar","countrySlug":"pakistan","adminSlug":"khyber-pakhtunkhwa"},{"id":2038180,"name":"Changchun","countryCode":"CN","countryName":"China","continent":"AS","adminName":"Jilin","population":4714996,"latitude":43.88,"longitude":125.3228,"rank":60,"slug":"changchun","countrySlug":"china","adminSlug":"jilin"},{"id":105343,"name":"Jeddah","countryCode":"SA","countryName":"Saudi Arabia","continent":"AS","adminName":"Mecca Region","population":4697000,"latitude":21.4901,"longitude":39.1862,"rank":61,"slug":"jeddah","countrySlug":"saudi-arabia","adminSlug":"mecca-region"},{"id":1790645,"name":"Xiamen","countryCode":"CN","countryName":"China","continent":"AS","adminName":"Fujian","population":4617251,"latitude":24.4798,"longitude":118.0819,"rank":62,"slug":"xiamen","countrySlug":"china","adminSlug":"fujian"},{"id":1298824,"name":"Yangon","countryCode":"MM","countryName":"Myanmar","continent":"AS","adminName":"Yangon","population":4477638,"latitude":16.8053,"longitude":96.1561,"rank":63,"slug":"yangon","countrySlug":"myanmar","adminSlug":"yangon"},{"id":13308620,"name":"Bao'an","countryCode":"CN","countryName":"China","continent":"AS","adminName":"Guangdong","population":4476554,"latitude":22.5521,"longitude":113.8829,"rank":64,"slug":"bao-an","countrySlug":"china","adminSlug":"guangdong"},{"id":1138958,"name":"Kabul","countryCode":"AF","countryName":"Afghanistan","continent":"AS","adminName":"Kabul","population":4434550,"latitude":34.5281,"longitude":69.1723,"rank":65,"slug":"kabul","countrySlug":"afghanistan","adminSlug":"kabul"},{"id":184745,"name":"Nairobi","countryCode":"KE","countryName":"Kenya","continent":"AF","adminName":"Nairobi County","population":4397073,"latitude":-1.2833,"longitude":36.8167,"rank":66,"slug":"nairobi","countrySlug":"kenya","adminSlug":"nairobi-county"},{"id":1790923,"name":"Wuxi","countryCode":"CN","countryName":"China","continent":"AS","adminName":"Jiangsu","population":4396835,"latitude":31.5689,"longitude":120.2886,"rank":67,"slug":"wuxi","countrySlug":"china","adminSlug":"jiangsu"},{"id":360995,"name":"Giza","countryCode":"EG","countryName":"Egypt","continent":"AF","adminName":"Giza","population":4367343,"latitude":30.0094,"longitude":31.2086,"rank":68,"slug":"giza","countrySlug":"egypt","adminSlug":"giza"},{"id":1805753,"name":"Jinan","countryCode":"CN","countryName":"China","continent":"AS","adminName":"Shandong","population":4335989,"latitude":36.6683,"longitude":116.9972,"rank":69,"slug":"jinan","countrySlug":"china","adminSlug":"shandong"},{"id":1793511,"name":"Taiyuan","countryCode":"CN","countryName":"China","continent":"AS","adminName":"Shanxi","population":4303673,"latitude":37.8694,"longitude":112.5603,"rank":70,"slug":"taiyuan","countrySlug":"china","adminSlug":"shanxi"},{"id":1784658,"name":"Zhengzhou","countryCode":"CN","countryName":"China","continent":"AS","adminName":"Henan","population":4253913,"latitude":34.7578,"longitude":113.6486,"rank":71,"slug":"zhengzhou","countrySlug":"china","adminSlug":"henan"},{"id":2460596,"name":"Bamako","countryCode":"ML","countryName":"Mali","continent":"AF","adminName":"Bamako","population":4227569,"latitude":12.6091,"longitude":-7.9752,"rank":72,"slug":"bamako","countrySlug":"mali","adminSlug":"bamako"},{"id":108410,"name":"Riyadh","countryCode":"SA","countryName":"Saudi Arabia","continent":"AS","adminName":"Riyadh Region","population":4205961,"latitude":24.6877,"longitude":46.7219,"rank":73,"slug":"riyadh","countrySlug":"saudi-arabia","adminSlug":"riyadh-region"},{"id":12908892,"name":"New Taipei City","countryCode":"TW","countryName":"Taiwan","continent":"AS","adminName":"Taipei","population":4004367,"latitude":25.062,"longitude":121.457,"rank":74,"slug":"new-taipei-city","countrySlug":"taiwan","adminSlug":"taipei"},{"id":12747063,"name":"New Territories","countryCode":"HK","countryName":"Hong Kong","continent":"AS","adminName":"","population":3984077,"latitude":22.4244,"longitude":114.111,"rank":75,"slug":"new-territories","countrySlug":"hong-kong","adminSlug":""},{"id":1795270,"name":"Shijiazhuang","countryCode":"CN","countryName":"China","continent":"AS","adminName":"Hebei","population":3938513,"latitude":38.0414,"longitude":114.4786,"rank":76,"slug":"shijiazhuang","countrySlug":"china","adminSlug":"hebei"},{"id":1205733,"name":"Chattogram","countryCode":"BD","countryName":"Bangladesh","continent":"AS","adminName":"Chittagong","population":3920222,"latitude":22.3384,"longitude":91.8317,"rank":77,"slug":"chattogram","countrySlug":"bangladesh","adminSlug":"chittagong"},{"id":344979,"name":"Addis Ababa","countryCode":"ET","countryName":"Ethiopia","continent":"AF","adminName":"Addis Ababa","population":3860000,"latitude":9.025,"longitude":38.7469,"rank":78,"slug":"addis-ababa","countrySlug":"ethiopia","adminSlug":"addis-ababa"},{"id":1804651,"name":"Kunming","countryCode":"CN","countryName":"China","continent":"AS","adminName":"Yunnan","population":3855346,"latitude":25.0389,"longitude":102.7183,"rank":79,"slug":"kunming","countrySlug":"china","adminSlug":"yunnan"},{"id":6986104,"name":"Zhongshan","countryCode":"CN","countryName":"China","continent":"AS","adminName":"Guangdong","population":3841873,"latitude":22.5231,"longitude":113.3791,"rank":80,"slug":"zhongshan","countrySlug":"china","adminSlug":"guangdong"},{"id":1799869,"name":"Nanning","countryCode":"CN","countryName":"China","continent":"AS","adminName":"Guangxi","population":3839800,"latitude":22.8167,"longitude":108.3167,"rank":81,"slug":"nanning","countrySlug":"china","adminSlug":"guangxi"},{"id":1795940,"name":"Shantou","countryCode":"CN","countryName":"China","continent":"AS","adminName":"Guangdong","population":3838900,"latitude":23.3549,"longitude":116.6788,"rank":82,"slug":"shantou","countrySlug":"china","adminSlug":"guangdong"},{"id":5368361,"name":"Los Angeles","countryCode":"US","countryName":"United States","continent":"NA","adminName":"California","population":3820914,"latitude":34.0522,"longitude":-118.2437,"rank":83,"slug":"los-angeles","countrySlug":"united-states","adminSlug":"california"},{"id":1179400,"name":"Faisalabad","countryCode":"PK","countryName":"Pakistan","continent":"AS","adminName":"Punjab","population":3800193,"latitude":31.4155,"longitude":73.0897,"rank":84,"slug":"faisalabad","countrySlug":"pakistan","adminSlug":"punjab"},{"id":292223,"name":"Dubai","countryCode":"AE","countryName":"United Arab Emirates","continent":"AS","adminName":"Dubai","population":3790000,"latitude":25.0772,"longitude":55.3093,"rank":85,"slug":"dubai","countrySlug":"united-arab-emirates","adminSlug":"dubai"},{"id":1848354,"name":"Yokohama","countryCode":"JP","countryName":"Japan","continent":"AS","adminName":"Kanagawa","population":3777491,"latitude":35.4333,"longitude":139.65,"rank":86,"slug":"yokohama","countrySlug":"japan","adminSlug":"kanagawa"},{"id":1810821,"name":"Fuzhou","countryCode":"CN","countryName":"China","continent":"AS","adminName":"Fujian","population":3740000,"latitude":26.0614,"longitude":119.3061,"rank":87,"slug":"fuzhou","countrySlug":"china","adminSlug":"fujian"},{"id":1799397,"name":"Ningbo","countryCode":"CN","countryName":"China","continent":"AS","adminName":"Zhejiang","population":3731203,"latitude":29.8782,"longitude":121.5494,"rank":88,"slug":"ningbo","countrySlug":"china","adminSlug":"zhejiang"},{"id":2553604,"name":"Casablanca","countryCode":"MA","countryName":"Morocco","continent":"AF","adminName":"Casablanca-Settat","population":3665954,"latitude":33.5883,"longitude":-7.6114,"rank":89,"slug":"casablanca","countrySlug":"morocco","adminSlug":"casablanca-settat"},{"id":2339354,"name":"Ibadan","countryCode":"NG","countryName":"Nigeria","continent":"AF","adminName":"Oyo State","population":3649000,"latitude":7.3776,"longitude":3.9059,"rank":90,"slug":"ibadan","countrySlug":"nigeria","adminSlug":"oyo-state"},{"id":1798425,"name":"Puyang","countryCode":"CN","countryName":"China","continent":"AS","adminName":"Zhejiang","population":3590000,"latitude":29.4568,"longitude":119.8887,"rank":91,"slug":"puyang","countrySlug":"china","adminSlug":"zhejiang"},{"id":323786,"name":"Ankara","countryCode":"TR","countryName":"Turkey","continent":"AS","adminName":"Ankara","population":3517182,"latitude":39.9199,"longitude":32.8543,"rank":92,"slug":"ankara","countrySlug":"turkey","adminSlug":"ankara"},{"id":1794903,"name":"Shiyan","countryCode":"CN","countryName":"China","continent":"AS","adminName":"Hubei","population":3460000,"latitude":32.6475,"longitude":110.7781,"rank":93,"slug":"shiyan","countrySlug":"china","adminSlug":"hubei"},{"id":2950159,"name":"Berlin","countryCode":"DE","countryName":"Germany","continent":"EU","adminName":"State of Berlin","population":3426354,"latitude":52.5244,"longitude":13.4105,"rank":94,"slug":"berlin","countrySlug":"germany","adminSlug":"state-of-berlin"},{"id":1793346,"name":"Tangshan","countryCode":"CN","countryName":"China","continent":"AS","adminName":"Hebei","population":3372102,"latitude":39.6438,"longitude":118.1832,"rank":95,"slug":"tangshan","countrySlug":"china","adminSlug":"hebei"},{"id":1166993,"name":"Rawalpindi","countryCode":"PK","countryName":"Pakistan","continent":"AS","adminName":"Punjab","population":3357612,"latitude":33.5973,"longitude":73.0479,"rank":96,"slug":"rawalpindi","countrySlug":"pakistan","adminSlug":"punjab"},{"id":13512505,"name":"Lueliang","countryCode":"CN","countryName":"China","continent":"AS","adminName":"Shanxi","population":3346500,"latitude":37.5192,"longitude":111.1444,"rank":97,"slug":"lueliang","countrySlug":"china","adminSlug":"shanxi"},{"id":1007311,"name":"Durban","countryCode":"ZA","countryName":"South Africa","continent":"AF","adminName":"KwaZulu-Natal","population":3338026,"latitude":-29.8579,"longitude":31.0292,"rank":98,"slug":"durban","countrySlug":"south-africa","adminSlug":"kwazulu-natal"},{"id":1815456,"name":"Changzhou","countryCode":"CN","countryName":"China","continent":"AS","adminName":"Jiangsu","population":3290918,"latitude":31.7736,"longitude":119.954,"rank":99,"slug":"changzhou","countrySlug":"china","adminSlug":"jiangsu"},{"id":1838524,"name":"Busan","countryCode":"KR","countryName":"South Korea","continent":"AS","adminName":"Busan","population":3285147,"latitude":35.1017,"longitude":129.03,"rank":100,"slug":"busan","countrySlug":"south-korea","adminSlug":"busan"},{"id":3117735,"name":"Madrid","countryCode":"ES","countryName":"Spain","continent":"EU","adminName":"Madrid","population":3255944,"latitude":40.4165,"longitude":-3.7026,"rank":101,"slug":"madrid","countrySlug":"spain","adminSlug":"madrid"},{"id":1871859,"name":"Pyongyang","countryCode":"KP","countryName":"North Korea","continent":"AS","adminName":"Pyongyang","population":3222000,"latitude":39.0339,"longitude":125.7543,"rank":102,"slug":"pyongyang","countrySlug":"north-korea","adminSlug":"pyongyang"},{"id":1785286,"name":"Zibo","countryCode":"CN","countryName":"China","continent":"AS","adminName":"Shandong","population":3129228,"latitude":36.7906,"longitude":118.0633,"rank":103,"slug":"zibo","countrySlug":"china","adminSlug":"shandong"},{"id":750269,"name":"Bursa","countryCode":"TR","countryName":"Turkey","continent":"AS","adminName":"Bursa Province","population":3101833,"latitude":40.1956,"longitude":29.0601,"rank":104,"slug":"bursa","countrySlug":"turkey","adminSlug":"bursa-province"},{"id":1815577,"name":"Changsha","countryCode":"CN","countryName":"China","continent":"AS","adminName":"Hunan","population":3093980,"latitude":28.1987,"longitude":112.9709,"rank":105,"slug":"changsha","countrySlug":"china","adminSlug":"hunan"},{"id":1692192,"name":"Quezon City","countryCode":"PH","countryName":"Philippines","continent":"AS","adminName":"National Capital Region","population":3084270,"latitude":14.6488,"longitude":121.0509,"rank":106,"slug":"quezon-city","countrySlug":"philippines","adminSlug":"national-capital-region"},{"id":1809461,"name":"Guiyang","countryCode":"CN","countryName":"China","continent":"AS","adminName":"Guizhou","population":3037159,"latitude":26.5833,"longitude":106.7167,"rank":107,"slug":"guiyang","countrySlug":"china","adminSlug":"guizhou"},{"id":1529102,"name":"UEruemqi","countryCode":"CN","countryName":"China","continent":"AS","adminName":"Xinjiang","population":3029372,"latitude":43.801,"longitude":87.6005,"rank":108,"slug":"ueruemqi","countrySlug":"china","adminSlug":"xinjiang"},{"id":1625822,"name":"Surabaya","countryCode":"ID","countryName":"Indonesia","continent":"AS","adminName":"East Java","population":3018022,"latitude":-7.2492,"longitude":112.7508,"rank":109,"slug":"surabaya","countrySlug":"indonesia","adminSlug":"east-java"},{"id":1843564,"name":"Incheon","countryCode":"KR","countryName":"South Korea","continent":"AS","adminName":"Incheon","population":3015482,"latitude":37.4565,"longitude":126.7052,"rank":110,"slug":"incheon","countrySlug":"south-korea","adminSlug":"incheon"},{"id":1804430,"name":"Lanzhou","countryCode":"CN","countryName":"China","continent":"AS","adminName":"Gansu","population":3000000,"latitude":36.057,"longitude":103.8399,"rank":111,"slug":"lanzhou","countrySlug":"china","adminSlug":"gansu"},{"id":3646738,"name":"Caracas","countryCode":"VE","countryName":"Venezuela","continent":"SA","adminName":"Distrito Federal","population":3000000,"latitude":10.488,"longitude":-66.8792,"rank":112,"slug":"caracas","countrySlug":"venezuela","adminSlug":"distrito-federal"},{"id":703448,"name":"Kyiv","countryCode":"UA","countryName":"Ukraine","continent":"EU","adminName":"Kyiv City","population":2952301,"latitude":50.4547,"longitude":30.5238,"rank":113,"slug":"kyiv","countrySlug":"ukraine","adminSlug":"kyiv-city"},{"id":311046,"name":"Izmir","countryCode":"TR","countryName":"Turkey","continent":"AS","adminName":"Izmir Province","population":2938292,"latitude":38.4127,"longitude":27.1384,"rank":114,"slug":"izmir","countrySlug":"turkey","adminSlug":"izmir-province"},{"id":1806776,"name":"Huizhou","countryCode":"CN","countryName":"China","continent":"AS","adminName":"Guangdong","population":2900113,"latitude":23.1115,"longitude":114.4152,"rank":115,"slug":"huizhou","countrySlug":"china","adminSlug":"guangdong"},{"id":3435910,"name":"Buenos Aires","countryCode":"AR","countryName":"Argentina","continent":"SA","adminName":"Buenos Aires F.D.","population":2891082,"latitude":-34.6131,"longitude":-58.3772,"rank":116,"slug":"buenos-aires","countrySlug":"argentina","adminSlug":"buenos-aires-f-d"},{"id":1809078,"name":"Haikou","countryCode":"CN","countryName":"China","continent":"AS","adminName":"Hainan","population":2873358,"latitude":20.0342,"longitude":110.3465,"rank":117,"slug":"haikou","countrySlug":"china","adminSlug":"hainan"},{"id":1668399,"name":"Taichung","countryCode":"TW","countryName":"Taiwan","continent":"AS","adminName":"Taiwan","population":2850285,"latitude":24.1469,"longitude":120.6839,"rank":118,"slug":"taichung","countrySlug":"taiwan","adminSlug":"taiwan"},{"id":6167865,"name":"Toronto","countryCode":"CA","countryName":"Canada","continent":"NA","adminName":"Ontario","population":2794356,"latitude":43.7064,"longitude":-79.3986,"rank":119,"slug":"toronto","countrySlug":"canada","adminSlug":"ontario"},{"id":3652462,"name":"Quito","countryCode":"EC","countryName":"Ecuador","continent":"SA","adminName":"Pichincha","population":2781641,"latitude":-0.2298,"longitude":-78.525,"rank":120,"slug":"quito","countrySlug":"ecuador","adminSlug":"pichincha"},{"id":2174003,"name":"Brisbane","countryCode":"AU","countryName":"Australia","continent":"OC","adminName":"Queensland","population":2780063,"latitude":-27.4679,"longitude":153.0281,"rank":121,"slug":"brisbane","countrySlug":"australia","adminSlug":"queensland"},{"id":2240449,"name":"Luanda","countryCode":"AO","countryName":"Angola","continent":"AF","adminName":"Luanda","population":2776168,"latitude":-8.8368,"longitude":13.2343,"rank":122,"slug":"luanda","countrySlug":"angola","adminSlug":"luanda"},{"id":1853909,"name":"Osaka","countryCode":"JP","countryName":"Japan","continent":"AS","adminName":"Osaka","population":2753862,"latitude":34.6938,"longitude":135.5011,"rank":123,"slug":"osaka","countrySlug":"japan","adminSlug":"osaka"},{"id":1803318,"name":"Linyi","countryCode":"CN","countryName":"China","continent":"AS","adminName":"Shandong","population":2743843,"latitude":35.0631,"longitude":118.3428,"rank":124,"slug":"linyi","countrySlug":"china","adminSlug":"shandong"},{"id":1816971,"name":"Baoding","countryCode":"CN","countryName":"China","continent":"AS","adminName":"Hebei","population":2739887,"latitude":38.8729,"longitude":115.4625,"rank":125,"slug":"baoding","countrySlug":"china","adminSlug":"hebei"},{"id":1673820,"name":"Kaohsiung","countryCode":"TW","countryName":"Taiwan","continent":"AS","adminName":"Takao","population":2737660,"latitude":22.6163,"longitude":120.3133,"rank":126,"slug":"kaohsiung","countrySlug":"taiwan","adminSlug":"takao"},{"id":5110302,"name":"Brooklyn","countryCode":"US","countryName":"United States","continent":"NA","adminName":"New York","population":2736074,"latitude":40.6501,"longitude":-73.9496,"rank":127,"slug":"brooklyn","countrySlug":"united-states","adminSlug":"new-york"},{"id":3657509,"name":"Guayaquil","countryCode":"EC","countryName":"Ecuador","continent":"SA","adminName":"Guayas","population":2723665,"latitude":-2.1962,"longitude":-79.8862,"rank":128,"slug":"guayaquil","countrySlug":"ecuador","adminSlug":"guayas"},{"id":3470127,"name":"Belo Horizonte","countryCode":"BR","countryName":"Brazil","continent":"SA","adminName":"Minas Gerais","population":2721564,"latitude":-19.9208,"longitude":-43.9378,"rank":129,"slug":"belo-horizonte","countrySlug":"brazil","adminSlug":"minas-gerais"},{"id":1800480,"name":"Minhang","countryCode":"CN","countryName":"China","continent":"AS","adminName":"Shanghai","population":2716600,"latitude":31.1088,"longitude":121.3747,"rank":130,"slug":"minhang","countrySlug":"china","adminSlug":"shanghai"},{"id":11995100,"name":"Bazhong","countryCode":"CN","countryName":"China","continent":"AS","adminName":"Sichuan","population":2712894,"latitude":31.8694,"longitude":106.7443,"rank":131,"slug":"bazhong","countrySlug":"china","adminSlug":"sichuan"},{"id":3450554,"name":"Salvador","countryCode":"BR","countryName":"Brazil","continent":"SA","adminName":"Bahia","population":2711840,"latitude":-12.9756,"longitude":-38.491,"rank":132,"slug":"salvador","countrySlug":"brazil","adminSlug":"bahia"},{"id":2352778,"name":"Abuja","countryCode":"NG","countryName":"Nigeria","continent":"AF","adminName":"FCT","population":2690000,"latitude":9.0579,"longitude":7.4951,"rank":133,"slug":"abuja","countrySlug":"nigeria","adminSlug":"fct"},{"id":1200109,"name":"Gazipur","countryCode":"BD","countryName":"Bangladesh","continent":"AS","adminName":"Dhaka Division","population":2674697,"latitude":23.9984,"longitude":90.4223,"rank":134,"slug":"gazipur","countrySlug":"bangladesh","adminSlug":"dhaka-division"},{"id":4887398,"name":"Chicago","countryCode":"US","countryName":"United States","continent":"NA","adminName":"Illinois","population":2664452,"latitude":41.85,"longitude":-87.65,"rank":135,"slug":"chicago","countrySlug":"united-states","adminSlug":"illinois"},{"id":1791388,"name":"Wenzhou","countryCode":"CN","countryName":"China","continent":"AS","adminName":"Zhejiang","population":2650000,"latitude":27.9994,"longitude":120.6668,"rank":136,"slug":"wenzhou","countrySlug":"china","adminSlug":"zhejiang"},{"id":1649378,"name":"Bekasi","countryCode":"ID","countryName":"Indonesia","continent":"AS","adminName":"West Java","population":2648272,"latitude":-6.2349,"longitude":106.9896,"rank":137,"slug":"bekasi","countrySlug":"indonesia","adminSlug":"west-java"},{"id":2253354,"name":"Dakar","countryCode":"SN","countryName":"Senegal","continent":"AF","adminName":"Dakar","population":2646503,"latitude":14.6937,"longitude":-17.4441,"rank":138,"slug":"dakar","countrySlug":"senegal","adminSlug":"dakar"},{"id":1581298,"name":"Haiphong","countryCode":"VN","countryName":"Vietnam","continent":"AS","adminName":"Hai Phong","population":2625200,"latitude":20.8648,"longitude":106.6834,"rank":139,"slug":"haiphong","countrySlug":"vietnam","adminSlug":"hai-phong"},{"id":1785725,"name":"Yunfu","countryCode":"CN","countryName":"China","continent":"AS","adminName":"Guangdong","population":2612800,"latitude":22.9279,"longitude":112.0381,"rank":140,"slug":"yunfu","countrySlug":"china","adminSlug":"guangdong"},{"id":53654,"name":"Mogadishu","countryCode":"SO","countryName":"Somalia","continent":"AF","adminName":"Banaadir","population":2587183,"latitude":2.0371,"longitude":45.3438,"rank":141,"slug":"mogadishu","countrySlug":"somalia","adminSlug":"banaadir"},{"id":2298890,"name":"Kumasi","countryCode":"GH","countryName":"Ghana","continent":"AF","adminName":"Ashanti","population":2544530,"latitude":6.6885,"longitude":-1.6244,"rank":142,"slug":"kumasi","countrySlug":"ghana","adminSlug":"ashanti"},{"id":1650357,"name":"Bandung","countryCode":"ID","countryName":"Indonesia","continent":"AS","adminName":"West Java","population":2528163,"latitude":-6.9222,"longitude":107.6069,"rank":143,"slug":"bandung","countrySlug":"indonesia","adminSlug":"west-java"},{"id":1177662,"name":"Gujranwala","countryCode":"PK","countryName":"Pakistan","continent":"AS","adminName":"Punjab","population":2511118,"latitude":32.1557,"longitude":74.187,"rank":144,"slug":"gujranwala","countrySlug":"pakistan","adminSlug":"punjab"},{"id":1797873,"name":"Huai'an","countryCode":"CN","countryName":"China","continent":"AS","adminName":"Jiangsu","population":2494013,"latitude":33.5886,"longitude":119.0192,"rank":145,"slug":"huai-an","countrySlug":"china","adminSlug":"jiangsu"},{"id":1214520,"name":"Medan","countryCode":"ID","countryName":"Indonesia","continent":"AS","adminName":"North Sumatra","population":2486283,"latitude":3.5833,"longitude":98.6667,"rank":146,"slug":"medan","countrySlug":"indonesia","adminSlug":"north-sumatra"},{"id":2357048,"name":"Ouagadougou","countryCode":"BF","countryName":"Burkina Faso","continent":"AF","adminName":"Centre","population":2415266,"latitude":12.3657,"longitude":-1.5339,"rank":147,"slug":"ouagadougou","countrySlug":"burkina-faso","adminSlug":"centre"},{"id":3399415,"name":"Fortaleza","countryCode":"BR","countryName":"Brazil","continent":"SA","adminName":"Ceara","population":2400000,"latitude":-3.7172,"longitude":-38.5431,"rank":148,"slug":"fortaleza","countrySlug":"brazil","adminSlug":"ceara"},{"id":3687925,"name":"Cali","countryCode":"CO","countryName":"Colombia","continent":"SA","adminName":"Valle del Cauca Department","population":2392877,"latitude":3.4305,"longitude":-76.5199,"rank":149,"slug":"cali","countrySlug":"colombia","adminSlug":"valle-del-cauca-department"},{"id":2063523,"name":"Perth","countryCode":"AU","countryName":"Australia","continent":"OC","adminName":"Western Australia","population":2384371,"latitude":-31.9522,"longitude":115.8614,"rank":150,"slug":"perth","countrySlug":"australia","adminSlug":"western-australia"},{"id":1835329,"name":"Daegu","countryCode":"KR","countryName":"South Korea","continent":"AS","adminName":"Daegu","population":2365523,"latitude":35.8703,"longitude":128.5911,"rank":151,"slug":"daegu","countrySlug":"south-korea","adminSlug":"daegu"},{"id":2507480,"name":"Algiers","countryCode":"DZ","countryName":"Algeria","continent":"AF","adminName":"Algiers","population":2364230,"latitude":36.7323,"longitude":3.0875,"rank":152,"slug":"algiers","countrySlug":"algeria","adminSlug":"algiers"},{"id":1800163,"name":"Nanchang","countryCode":"CN","countryName":"China","continent":"AS","adminName":"Jiangxi","population":2357839,"latitude":28.684,"longitude":115.8531,"rank":153,"slug":"nanchang","countrySlug":"china","adminSlug":"jiangxi"},{"id":587084,"name":"Baku","countryCode":"AZ","countryName":"Azerbaijan","continent":"AS","adminName":"Baki","population":2351300,"latitude":40.3777,"longitude":49.892,"rank":154,"slug":"baku","countrySlug":"azerbaijan","adminSlug":"baki"},{"id":2036892,"name":"Hohhot","countryCode":"CN","countryName":"China","continent":"AS","adminName":"Inner Mongolia","population":2350000,"latitude":40.8106,"longitude":111.6522,"rank":155,"slug":"hohhot","countrySlug":"china","adminSlug":"inner-mongolia"},{"id":1856057,"name":"Nagoya","countryCode":"JP","countryName":"Japan","continent":"AS","adminName":"Aichi","population":2332176,"latitude":35.1815,"longitude":136.9064,"rank":156,"slug":"nagoya","countrySlug":"japan","adminSlug":"aichi"},{"id":3169070,"name":"Rome","countryCode":"IT","countryName":"Italy","continent":"EU","adminName":"Lazio","population":2318895,"latitude":41.8919,"longitude":12.5113,"rank":157,"slug":"rome","countrySlug":"italy","adminSlug":"lazio"},{"id":5133273,"name":"Queens","countryCode":"US","countryName":"United States","continent":"NA","adminName":"New York","population":2316841,"latitude":40.6815,"longitude":-73.8365,"rank":158,"slug":"queens","countrySlug":"united-states","adminSlug":"new-york"},{"id":4699066,"name":"Houston","countryCode":"US","countryName":"United States","continent":"NA","adminName":"Texas","population":2314157,"latitude":29.7633,"longitude":-95.3633,"rank":159,"slug":"houston","countrySlug":"united-states","adminSlug":"texas"},{"id":124665,"name":"Mashhad","countryCode":"IR","countryName":"Iran","continent":"AS","adminName":"Razavi Khorasan","population":2307177,"latitude":36.2981,"longitude":59.6057,"rank":160,"slug":"mashhad","countrySlug":"iran","adminSlug":"razavi-khorasan"},{"id":1795855,"name":"Shaoxing","countryCode":"CN","countryName":"China","continent":"AS","adminName":"Zhejiang","population":2300000,"latitude":30.0024,"longitude":120.5786,"rank":161,"slug":"shaoxing","countrySlug":"china","adminSlug":"zhejiang"},{"id":1799722,"name":"Nantong","countryCode":"CN","countryName":"China","continent":"AS","adminName":"Jiangsu","population":2273326,"latitude":32.0303,"longitude":120.8747,"rank":162,"slug":"nantong","countrySlug":"china","adminSlug":"jiangsu"},{"id":1816917,"name":"Baoshan","countryCode":"CN","countryName":"China","continent":"AS","adminName":"Shanghai","population":2265900,"latitude":31.4084,"longitude":121.4896,"rank":163,"slug":"baoshan","countrySlug":"china","adminSlug":"shanghai"},{"id":1819609,"name":"Kowloon","countryCode":"HK","countryName":"Hong Kong","continent":"AS","adminName":"","population":2232339,"latitude":22.3167,"longitude":114.1833,"rank":164,"slug":"kowloon","countrySlug":"hong-kong","adminSlug":""},{"id":1787093,"name":"Yantai","countryCode":"CN","countryName":"China","continent":"AS","adminName":"Shandong","population":2227733,"latitude":37.4765,"longitude":121.4408,"rank":165,"slug":"yantai","countrySlug":"china","adminSlug":"shandong"},{"id":314830,"name":"Gaziantep","countryCode":"TR","countryName":"Turkey","continent":"AS","adminName":"Gaziantep","population":2222415,"latitude":37.0594,"longitude":37.3825,"rank":166,"slug":"gaziantep","countrySlug":"turkey","adminSlug":"gaziantep"},{"id":922704,"name":"Lubumbashi","countryCode":"CD","countryName":"Democratic Republic of the Congo","continent":"AF","adminName":"Haut-Katanga","population":2221925,"latitude":-11.6609,"longitude":27.4794,"rank":167,"slug":"lubumbashi","countrySlug":"democratic-republic-of-the-congo","adminSlug":"haut-katanga"},{"id":3663517,"name":"Manaus","countryCode":"BR","countryName":"Brazil","continent":"SA","adminName":"Amazonas","population":2219580,"latitude":-3.1019,"longitude":-60.025,"rank":168,"slug":"manaus","countrySlug":"brazil","adminSlug":"amazonas"},{"id":909137,"name":"Lusaka","countryCode":"ZM","countryName":"Zambia","continent":"AF","adminName":"Lusaka Province","population":2212301,"latitude":-15.4067,"longitude":28.2871,"rank":169,"slug":"lusaka","countrySlug":"zambia","adminSlug":"lusaka-province"},{"id":3469058,"name":"Brasilia","countryCode":"BR","countryName":"Brazil","continent":"SA","adminName":"Federal District","population":2207718,"latitude":-15.7797,"longitude":-47.9297,"rank":170,"slug":"brasilia","countrySlug":"brazil","adminSlug":"federal-district"},{"id":1790437,"name":"Zhuhai","countryCode":"CN","countryName":"China","continent":"AS","adminName":"Guangdong","population":2207090,"latitude":22.2769,"longitude":113.5678,"rank":171,"slug":"zhuhai","countrySlug":"china","adminSlug":"guangdong"},{"id":3492908,"name":"Santo Domingo","countryCode":"DO","countryName":"Dominican Republic","continent":"NA","adminName":"Nacional","population":2201941,"latitude":18.4719,"longitude":-69.8923,"rank":172,"slug":"santo-domingo","countrySlug":"dominican-republic","adminSlug":"nacional"},{"id":2365267,"name":"Lome","countryCode":"TG","countryName":"Togo","continent":"AF","adminName":"Maritime","population":2188376,"latitude":6.1287,"longitude":1.2215,"rank":173,"slug":"lome","countrySlug":"togo","adminSlug":"maritime"},{"id":1169825,"name":"Multan","countryCode":"PK","countryName":"Pakistan","continent":"AS","adminName":"Punjab","population":2169915,"latitude":30.1968,"longitude":71.4782,"rank":174,"slug":"multan","countrySlug":"pakistan","adminSlug":"punjab"},{"id":3553478,"name":"Havana","countryCode":"CU","countryName":"Cuba","continent":"NA","adminName":"Havana","population":2163824,"latitude":23.133,"longitude":-82.383,"rank":175,"slug":"havana","countrySlug":"cuba","adminSlug":"havana"},{"id":1645524,"name":"Depok","countryCode":"ID","countryName":"Indonesia","continent":"AS","adminName":"West Java","population":2163635,"latitude":-6.4,"longitude":106.8186,"rank":176,"slug":"depok","countrySlug":"indonesia","adminSlug":"west-java"},{"id":2038432,"name":"Baotou","countryCode":"CN","countryName":"China","continent":"AS","adminName":"Inner Mongolia","population":2150000,"latitude":40.6516,"longitude":109.8439,"rank":177,"slug":"baotou","countrySlug":"china","adminSlug":"inner-mongolia"},{"id":2988507,"name":"Paris","countryCode":"FR","countryName":"France","continent":"EU","adminName":"Ile-de-France","population":2138551,"latitude":48.8534,"longitude":2.3488,"rank":178,"slug":"paris","countrySlug":"france","adminSlug":"ile-de-france"},{"id":12359313,"name":"Qingyang","countryCode":"CN","countryName":"China","continent":"AS","adminName":"Gansu","population":2125400,"latitude":35.7098,"longitude":107.6445,"rank":179,"slug":"qingyang","countrySlug":"china","adminSlug":"gansu"},{"id":2324774,"name":"Port Harcourt","countryCode":"NG","countryName":"Nigeria","continent":"AF","adminName":"Rivers State","population":2120000,"latitude":4.7774,"longitude":7.0134,"rank":180,"slug":"port-harcourt","countrySlug":"nigeria","adminSlug":"rivers-state"},{"id":964137,"name":"Pretoria","countryCode":"ZA","countryName":"South Africa","continent":"AF","adminName":"Gauteng","population":2112693,"latitude":-25.7449,"longitude":28.1878,"rank":181,"slug":"pretoria","countrySlug":"south-africa","adminSlug":"gauteng"},{"id":3860259,"name":"Cordoba","countryCode":"AR","countryName":"Argentina","continent":"SA","adminName":"Cordoba","population":2106734,"latitude":-31.4065,"longitude":-64.1885,"rank":182,"slug":"cordoba","countrySlug":"argentina","adminSlug":"cordoba"},{"id":209228,"name":"Mbuji-Mayi","countryCode":"CD","countryName":"Democratic Republic of the Congo","continent":"AF","adminName":"East Kasai","population":2101332,"latitude":-6.136,"longitude":23.5898,"rank":183,"slug":"mbuji-mayi","countrySlug":"democratic-republic-of-the-congo","adminSlug":"east-kasai"},{"id":170063,"name":"Aleppo","countryCode":"SY","countryName":"Syria","continent":"AS","adminName":"Aleppo","population":2098210,"latitude":36.2012,"longitude":37.1612,"rank":184,"slug":"aleppo","countrySlug":"syria","adminSlug":"aleppo"},{"id":1785623,"name":"Kunshan","countryCode":"CN","countryName":"China","continent":"AS","adminName":"Jiangsu","population":2092496,"latitude":31.3776,"longitude":120.9543,"rank":185,"slug":"kunshan","countrySlug":"china","adminSlug":"jiangsu"},{"id":99071,"name":"Al Mawsil al Jadidah","countryCode":"IQ","countryName":"Iraq","continent":"AS","adminName":"Nineveh","population":2065597,"latitude":36.3327,"longitude":43.1056,"rank":186,"slug":"al-mawsil-al-jadidah","countrySlug":"iraq","adminSlug":"nineveh"},{"id":1791681,"name":"Weifang","countryCode":"CN","countryName":"China","continent":"AS","adminName":"Shandong","population":2044028,"latitude":36.71,"longitude":119.1019,"rank":187,"slug":"weifang","countrySlug":"china","adminSlug":"shandong"},{"id":1783621,"name":"Zunyi","countryCode":"CN","countryName":"China","continent":"AS","adminName":"Guizhou","population":2037775,"latitude":27.6867,"longitude":106.9072,"rank":188,"slug":"zunyi","countrySlug":"china","adminSlug":"guizhou"},{"id":388349,"name":"Al Basrah al Qadimah","countryCode":"IQ","countryName":"Iraq","continent":"AS","adminName":"Basra","population":2015483,"latitude":30.5032,"longitude":47.8151,"rank":189,"slug":"al-basrah-al-qadimah","countrySlug":"iraq","adminSlug":"basra"},{"id":3911925,"name":"La Paz","countryCode":"BO","countryName":"Bolivia","continent":"SA","adminName":"La Paz Department","population":2004652,"latitude":-16.5,"longitude":-68.15,"rank":190,"slug":"la-paz","countrySlug":"bolivia","adminSlug":"la-paz-department"},{"id":10859300,"name":"Lianyungang","countryCode":"CN","countryName":"China","continent":"AS","adminName":"Jiangsu","population":2001009,"latitude":34.5984,"longitude":119.2156,"rank":191,"slug":"lianyungang","countrySlug":"china","adminSlug":"jiangsu"},{"id":3674962,"name":"Medellin","countryCode":"CO","countryName":"Colombia","continent":"SA","adminName":"Antioquia","population":1999979,"latitude":6.245,"longitude":-75.5715,"rank":192,"slug":"medellin","countrySlug":"colombia","adminSlug":"antioquia"},{"id":2260535,"name":"Brazzaville","countryCode":"CG","countryName":"Republic of the Congo","continent":"AF","adminName":"Brazzaville","population":1982000,"latitude":-4.2661,"longitude":15.2832,"rank":193,"slug":"brazzaville","countrySlug":"republic-of-the-congo","adminSlug":"brazzaville"},{"id":1512569,"name":"Tashkent","countryCode":"UZ","countryName":"Uzbekistan","continent":"AS","adminName":"Tashkent","population":1978028,"latitude":41.2647,"longitude":69.2163,"rank":194,"slug":"tashkent","countrySlug":"uzbekistan","adminSlug":"tashkent"},{"id":1810638,"name":"Ganzhou","countryCode":"CN","countryName":"China","continent":"AS","adminName":"Jiangxi","population":1977253,"latitude":25.8466,"longitude":114.9326,"rank":195,"slug":"ganzhou","countrySlug":"china","adminSlug":"jiangxi"},{"id":1526384,"name":"Almaty","countryCode":"KZ","countryName":"Kazakhstan","continent":"AS","adminName":"Almaty","population":1977011,"latitude":43.2525,"longitude":76.9115,"rank":196,"slug":"almaty","countrySlug":"kazakhstan","adminSlug":"almaty"},{"id":379252,"name":"Khartoum","countryCode":"SD","countryName":"Sudan","continent":"AF","adminName":"Khartoum","population":1974647,"latitude":15.5518,"longitude":32.5324,"rank":197,"slug":"khartoum","countrySlug":"sudan","adminSlug":"khartoum"},{"id":2911298,"name":"Hamburg","countryCode":"DE","countryName":"Germany","continent":"EU","adminName":"Hamburg","population":1973896,"latitude":53.5507,"longitude":9.993,"rank":198,"slug":"hamburg","countrySlug":"germany","adminSlug":"hamburg"},{"id":2128295,"name":"Sapporo","countryCode":"JP","countryName":"Japan","continent":"AS","adminName":"Hokkaido","population":1973832,"latitude":43.0667,"longitude":141.35,"rank":199,"slug":"sapporo","countrySlug":"japan","adminSlug":"hokkaido"},{"id":1794035,"name":"Songjiang","countryCode":"CN","countryName":"China","continent":"AS","adminName":"Shanghai","population":1973500,"latitude":31.0344,"longitude":121.2233,"rank":200,"slug":"songjiang","countrySlug":"china","adminSlug":"shanghai"},{"id":2306104,"name":"Accra","countryCode":"GH","countryName":"Ghana","continent":"AF","adminName":"Greater Accra","population":1963264,"latitude":5.556,"longitude":-0.1969,"rank":201,"slug":"accra","countrySlug":"ghana","adminSlug":"greater-accra"},{"id":3464975,"name":"Curitiba","countryCode":"BR","countryName":"Brazil","continent":"SA","adminName":"Parana","population":1948626,"latitude":-25.4278,"longitude":-49.2731,"rank":202,"slug":"curitiba","countrySlug":"brazil","adminSlug":"parana"},{"id":8347664,"name":"Ordos","countryCode":"CN","countryName":"China","continent":"AS","adminName":"Inner Mongolia","population":1940653,"latitude":39.6086,"longitude":109.7816,"rank":203,"slug":"ordos","countrySlug":"china","adminSlug":"inner-mongolia"},{"id":71137,"name":"Sanaa","countryCode":"YE","countryName":"Yemen","continent":"AS","adminName":"Amanat Alasimah","population":1937451,"latitude":15.3545,"longitude":44.2065,"rank":204,"slug":"sanaa","countrySlug":"yemen","adminSlug":"amanat-alasimah"},{"id":2422465,"name":"Conakry","countryCode":"GN","countryName":"Guinea","continent":"AF","adminName":"Conakry","population":1928389,"latitude":9.538,"longitude":-13.6773,"rank":205,"slug":"conakry","countrySlug":"guinea","adminSlug":"conakry"},{"id":1625084,"name":"Tangerang","countryCode":"ID","countryName":"Indonesia","continent":"AS","adminName":"Banten","population":1927815,"latitude":-6.1781,"longitude":106.63,"rank":206,"slug":"tangerang","countrySlug":"indonesia","adminSlug":"banten"},{"id":3981609,"name":"Tijuana","countryCode":"MX","countryName":"Mexico","continent":"NA","adminName":"Baja California","population":1922523,"latitude":32.5027,"longitude":-117.0037,"rank":207,"slug":"tijuana","countrySlug":"mexico","adminSlug":"baja-california"},{"id":1176734,"name":"Hyderabad","countryCode":"PK","countryName":"Pakistan","continent":"AS","adminName":"Sindh","population":1921275,"latitude":25.3969,"longitude":68.3772,"rank":208,"slug":"hyderabad","countrySlug":"pakistan","adminSlug":"sindh"},{"id":276781,"name":"Beirut","countryCode":"LB","countryName":"Lebanon","continent":"AS","adminName":"Beirut","population":1916100,"latitude":33.8933,"longitude":35.5016,"rank":209,"slug":"beirut","countrySlug":"lebanon","adminSlug":"beirut"},{"id":1797121,"name":"Jieyang","countryCode":"CN","countryName":"China","continent":"AS","adminName":"Guangdong","population":1899394,"latitude":23.5418,"longitude":116.3658,"rank":210,"slug":"jieyang","countrySlug":"china","adminSlug":"guangdong"},{"id":2036502,"name":"Jilin","countryCode":"CN","countryName":"China","continent":"AS","adminName":"Jilin","population":1895865,"latitude":43.8465,"longitude":126.5608,"rank":211,"slug":"jilin","countrySlug":"china","adminSlug":"jilin"},{"id":1806508,"name":"Jiading","countryCode":"CN","countryName":"China","continent":"AS","adminName":"Shanghai","population":1886100,"latitude":31.3858,"longitude":121.2446,"rank":212,"slug":"jiading","countrySlug":"china","adminSlug":"shanghai"},{"id":683506,"name":"Bucharest","countryCode":"RO","countryName":"Romania","continent":"EU","adminName":"Bucharest","population":1877155,"latitude":44.4323,"longitude":26.1063,"rank":213,"slug":"bucharest","countrySlug":"romania","adminSlug":"bucharest"},{"id":2422488,"name":"Camayenne","countryCode":"GN","countryName":"Guinea","continent":"AF","adminName":"Conakry","population":1871242,"latitude":9.535,"longitude":-13.6878,"rank":214,"slug":"camayenne","countrySlug":"guinea","adminSlug":"conakry"},{"id":195272,"name":"Kakamega","countryCode":"KE","countryName":"Kenya","continent":"AF","adminName":"Kakamega County","population":1867579,"latitude":0.2842,"longitude":34.7523,"rank":215,"slug":"kakamega","countrySlug":"kenya","adminSlug":"kakamega-county"},{"id":1796134,"name":"Shangqiu","countryCode":"CN","countryName":"China","continent":"AS","adminName":"Henan","population":1859723,"latitude":34.4143,"longitude":115.6561,"rank":216,"slug":"shangqiu","countrySlug":"china","adminSlug":"henan"},{"id":1800146,"name":"Nanchong","countryCode":"CN","countryName":"China","continent":"AS","adminName":"Sichuan","population":1858875,"latitude":30.7951,"longitude":106.0847,"rank":217,"slug":"nanchong","countrySlug":"china","adminSlug":"sichuan"},{"id":1668355,"name":"Tainan","countryCode":"TW","countryName":"Taiwan","continent":"AS","adminName":"Taiwan","population":1856642,"latitude":22.9908,"longitude":120.2133,"rank":218,"slug":"tainan","countrySlug":"taiwan","adminSlug":"taiwan"},{"id":2037799,"name":"Datong","countryCode":"CN","countryName":"China","continent":"AS","adminName":"Shanxi","population":1850000,"latitude":40.0936,"longitude":113.2914,"rank":219,"slug":"datong","countrySlug":"china","adminSlug":"shanxi"},{"id":2335727,"name":"Kaduna","countryCode":"NG","countryName":"Nigeria","continent":"AF","adminName":"Kaduna State","population":1850000,"latitude":10.5264,"longitude":7.4388,"rank":220,"slug":"kaduna","countrySlug":"nigeria","adminSlug":"kaduna-state"},{"id":365137,"name":"Omdurman","countryCode":"SD","countryName":"Sudan","continent":"AF","adminName":"Khartoum","population":1849659,"latitude":15.6445,"longitude":32.4777,"rank":221,"slug":"omdurman","countrySlug":"sudan","adminSlug":"khartoum"},{"id":1715348,"name":"Davao","countryCode":"PH","countryName":"Philippines","continent":"AS","adminName":"Davao Region","population":1848947,"latitude":7.0731,"longitude":125.6128,"rank":222,"slug":"davao","countrySlug":"philippines","adminSlug":"davao-region"},{"id":3526683,"name":"Iztapalapa","countryCode":"MX","countryName":"Mexico","continent":"NA","adminName":"Mexico City","population":1835486,"latitude":19.3553,"longitude":-99.0622,"rank":223,"slug":"iztapalapa","countrySlug":"mexico","adminSlug":"mexico-city"},{"id":316541,"name":"Diyarbakir","countryCode":"TR","countryName":"Turkey","continent":"AS","adminName":"Diyarbakir Province","population":1833684,"latitude":37.9136,"longitude":40.2172,"rank":224,"slug":"diyarbakir","countrySlug":"turkey","adminSlug":"diyarbakir-province"},{"id":3904906,"name":"Santa Cruz de la Sierra","countryCode":"BO","countryName":"Bolivia","continent":"SA","adminName":"Santa Cruz Department","population":1831434,"latitude":-17.7863,"longitude":-63.1812,"rank":225,"slug":"santa-cruz-de-la-sierra","countrySlug":"bolivia","adminSlug":"santa-cruz-department"},{"id":325363,"name":"Adana","countryCode":"TR","countryName":"Turkey","continent":"AS","adminName":"Adana","population":1816750,"latitude":36.9862,"longitude":35.3253,"rank":226,"slug":"adana","countrySlug":"turkey","adminSlug":"adana"},{"id":1799629,"name":"Nanyang","countryCode":"CN","countryName":"China","continent":"AS","adminName":"Henan","population":1811812,"latitude":33.0052,"longitude":112.5466,"rank":227,"slug":"nanyang","countrySlug":"china","adminSlug":"henan"},{"id":292968,"name":"Abu Dhabi","countryCode":"AE","countryName":"United Arab Emirates","continent":"AS","adminName":"Abu Dhabi","population":1807000,"latitude":24.4512,"longitude":54.397,"rank":228,"slug":"abu-dhabi","countrySlug":"united-arab-emirates","adminSlug":"abu-dhabi"},{"id":1633070,"name":"Palembang","countryCode":"ID","countryName":"Indonesia","continent":"AS","adminName":"South Sumatra","population":1801367,"latitude":-2.9167,"longitude":104.7458,"rank":229,"slug":"palembang","countrySlug":"indonesia","adminSlug":"south-sumatra"},{"id":292672,"name":"Sharjah","countryCode":"AE","countryName":"United Arab Emirates","continent":"AS","adminName":"Sharjah","population":1800000,"latitude":25.3342,"longitude":55.4122,"rank":230,"slug":"sharjah","countrySlug":"united-arab-emirates","adminSlug":"sharjah"},{"id":1806299,"name":"Jiangmen","countryCode":"CN","countryName":"China","continent":"AS","adminName":"Guangdong","population":1795459,"latitude":22.5833,"longitude":113.0833,"rank":231,"slug":"jiangmen","countrySlug":"china","adminSlug":"guangdong"},{"id":2347283,"name":"Benin City","countryCode":"NG","countryName":"Nigeria","continent":"AF","adminName":"Edo State","population":1782000,"latitude":6.3381,"longitude":5.6258,"rank":232,"slug":"benin-city","countrySlug":"nigeria","adminSlug":"edo-state"},{"id":1815251,"name":"Jiangyin","countryCode":"CN","countryName":"China","continent":"AS","adminName":"Jiangsu","population":1779515,"latitude":31.911,"longitude":120.263,"rank":233,"slug":"jiangyin","countrySlug":"china","adminSlug":"jiangsu"},{"id":1810845,"name":"Fuyang","countryCode":"CN","countryName":"China","continent":"AS","adminName":"Anhui","population":1768947,"latitude":32.9,"longitude":115.8167,"rank":234,"slug":"fuyang","countrySlug":"china","adminSlug":"anhui"},{"id":6077243,"name":"Montreal","countryCode":"CA","countryName":"Canada","continent":"NA","adminName":"Quebec","population":1762949,"latitude":45.5088,"longitude":-73.5878,"rank":235,"slug":"montreal","countrySlug":"canada","adminSlug":"quebec"},{"id":11838258,"name":"Bayan Nur","countryCode":"CN","countryName":"China","continent":"AS","adminName":"Inner Mongolia","population":1760000,"latitude":40.7414,"longitude":107.386,"rank":236,"slug":"bayan-nur","countrySlug":"china","adminSlug":"inner-mongolia"},{"id":3633009,"name":"Maracaibo","countryCode":"VE","countryName":"Venezuela","continent":"SA","adminName":"Zulia","population":1752602,"latitude":10.6423,"longitude":-71.6109,"rank":237,"slug":"maracaibo","countrySlug":"venezuela","adminSlug":"zulia"},{"id":1815395,"name":"Chaozhou","countryCode":"CN","countryName":"China","continent":"AS","adminName":"Guangdong","population":1750945,"latitude":23.654,"longitude":116.6226,"rank":238,"slug":"chaozhou","countrySlug":"china","adminSlug":"guangdong"},{"id":625144,"name":"Minsk","countryCode":"BY","countryName":"Belarus","continent":"EU","adminName":"Minsk City","population":1742124,"latitude":53.9002,"longitude":27.5665,"rank":239,"slug":"minsk","countrySlug":"belarus","adminSlug":"minsk-city"},{"id":3054643,"name":"Budapest","countryCode":"HU","countryName":"Hungary","continent":"EU","adminName":"Budapest","population":1741041,"latitude":47.4984,"longitude":19.0404,"rank":240,"slug":"budapest","countrySlug":"hungary","adminSlug":"budapest"},{"id":1797945,"name":"Qingyuan","countryCode":"CN","countryName":"China","continent":"AS","adminName":"Guangdong","population":1738424,"latitude":23.7,"longitude":113.0333,"rank":241,"slug":"qingyuan","countrySlug":"china","adminSlug":"guangdong"},{"id":1793724,"name":"Tai'an","countryCode":"CN","countryName":"China","continent":"AS","adminName":"Shandong","population":1735425,"latitude":36.1853,"longitude":117.12,"rank":242,"slug":"tai-an","countrySlug":"china","adminSlug":"shandong"},{"id":1720151,"name":"Caloocan","countryCode":"PH","countryName":"Philippines","continent":"AS","adminName":"National Capital Region","population":1712945,"latitude":14.6495,"longitude":120.9679,"rank":243,"slug":"caloocan","countrySlug":"philippines","adminSlug":"national-capital-region"},{"id":756135,"name":"Warsaw","countryCode":"PL","countryName":"Poland","continent":"EU","adminName":"Mazovia","population":1702139,"latitude":52.2298,"longitude":21.0118,"rank":244,"slug":"warsaw","countrySlug":"poland","adminSlug":"mazovia"},{"id":953781,"name":"Soweto","countryCode":"ZA","countryName":"South Africa","continent":"AF","adminName":"Gauteng","population":1695047,"latitude":-26.2678,"longitude":27.8585,"rank":245,"slug":"soweto","countrySlug":"south-africa","adminSlug":"gauteng"},{"id":1627896,"name":"Semarang","countryCode":"ID","countryName":"Indonesia","continent":"AS","adminName":"Central Java","population":1694740,"latitude":-6.9931,"longitude":110.4208,"rank":246,"slug":"semarang","countrySlug":"indonesia","adminSlug":"central-java"},{"id":3521081,"name":"Puebla","countryCode":"MX","countryName":"Mexico","continent":"NA","adminName":"Puebla","population":1692181,"latitude":19.0478,"longitude":-98.2072,"rank":247,"slug":"puebla","countrySlug":"mexico","adminSlug":"puebla"},{"id":2761369,"name":"Vienna","countryCode":"AT","countryName":"Austria","continent":"EU","adminName":"State of Vienna","population":1691468,"latitude":48.2085,"longitude":16.3721,"rank":248,"slug":"vienna","countrySlug":"austria","adminSlug":"state-of-vienna"},{"id":3128760,"name":"Barcelona","countryCode":"ES","countryName":"Spain","continent":"EU","adminName":"Catalonia","population":1686208,"latitude":41.3888,"longitude":2.159,"rank":249,"slug":"barcelona","countrySlug":"spain","adminSlug":"catalonia"},{"id":99072,"name":"Mosul","countryCode":"IQ","countryName":"Iraq","continent":"AS","adminName":"Nineveh","population":1683000,"latitude":36.335,"longitude":43.1189,"rank":250,"slug":"mosul","countrySlug":"iraq","adminSlug":"nineveh"},{"id":232422,"name":"Kampala","countryCode":"UG","countryName":"Uganda","continent":"AF","adminName":"Central Region","population":1680600,"latitude":0.3163,"longitude":32.5822,"rank":251,"slug":"kampala","countrySlug":"uganda","adminSlug":"central-region"},{"id":1788852,"name":"Xining","countryCode":"CN","countryName":"China","continent":"AS","adminName":"Qinghai","population":1677177,"latitude":36.6255,"longitude":101.7574,"rank":252,"slug":"xining","countrySlug":"china","adminSlug":"qinghai"},{"id":7283386,"name":"Changshu","countryCode":"CN","countryName":"China","continent":"AS","adminName":"Jiangsu","population":1677050,"latitude":31.6461,"longitude":120.7422,"rank":253,"slug":"changshu","countrySlug":"china","adminSlug":"jiangsu"},{"id":1807681,"name":"Huainan","countryCode":"CN","countryName":"China","continent":"AS","adminName":"Anhui","population":1666826,"latitude":32.6264,"longitude":116.9969,"rank":254,"slug":"huainan","countrySlug":"china","adminSlug":"anhui"},{"id":2538475,"name":"Rabat","countryCode":"MA","countryName":"Morocco","continent":"AF","adminName":"Rabat-Sale-Kenitra","population":1655753,"latitude":34.0132,"longitude":-6.8326,"rank":255,"slug":"rabat","countrySlug":"morocco","adminSlug":"rabat-sale-kenitra"},{"id":3390760,"name":"Recife","countryCode":"BR","countryName":"Brazil","continent":"SA","adminName":"Pernambuco","population":1653461,"latitude":-8.0539,"longitude":-34.8811,"rank":256,"slug":"recife","countrySlug":"brazil","adminSlug":"pernambuco"},{"id":5308655,"name":"Phoenix","countryCode":"US","countryName":"United States","continent":"NA","adminName":"Arizona","population":1650070,"latitude":33.4484,"longitude":-112.074,"rank":257,"slug":"phoenix","countrySlug":"united-states","adminSlug":"arizona"},{"id":1793743,"name":"Suzhou","countryCode":"CN","countryName":"China","continent":"AS","adminName":"Anhui","population":1647642,"latitude":33.6361,"longitude":116.9789,"rank":258,"slug":"suzhou-anhui","countrySlug":"china","adminSlug":"anhui"},{"id":3529612,"name":"Ecatepec de Morelos","countryCode":"MX","countryName":"Mexico","continent":"NA","adminName":"Mexico","population":1645352,"latitude":19.6049,"longitude":-99.0606,"rank":259,"slug":"ecatepec-de-morelos","countrySlug":"mexico","adminSlug":"mexico"},{"id":1802206,"name":"Lu'an","countryCode":"CN","countryName":"China","continent":"AS","adminName":"Anhui","population":1644344,"latitude":31.7356,"longitude":116.5169,"rank":260,"slug":"lu-an","countrySlug":"china","adminSlug":"anhui"},{"id":3625549,"name":"Valencia","countryCode":"VE","countryName":"Venezuela","continent":"SA","adminName":"Carabobo","population":1619470,"latitude":10.1615,"longitude":-68.0004,"rank":261,"slug":"valencia","countrySlug":"venezuela","adminSlug":"carabobo"},{"id":1787746,"name":"Yancheng","countryCode":"CN","countryName":"China","continent":"AS","adminName":"Jiangsu","population":1615717,"latitude":33.3575,"longitude":120.1573,"rank":262,"slug":"yancheng","countrySlug":"china","adminSlug":"jiangsu"},{"id":1496747,"name":"Novosibirsk","countryCode":"RU","countryName":"Russia","continent":"EU","adminName":"Novosibirsk Oblast","population":1612833,"latitude":55.0226,"longitude":82.9317,"rank":263,"slug":"novosibirsk","countrySlug":"russia","adminSlug":"novosibirsk-oblast"},{"id":95446,"name":"Erbil","countryCode":"IQ","countryName":"Iraq","continent":"AS","adminName":"Erbil","population":1612700,"latitude":36.1912,"longitude":44.0094,"rank":264,"slug":"erbil","countrySlug":"iraq","adminSlug":"erbil"},{"id":1863967,"name":"Fukuoka","countryCode":"JP","countryName":"Japan","continent":"AS","adminName":"Fukuoka","population":1612392,"latitude":33.6,"longitude":130.4167,"rank":265,"slug":"fukuoka","countrySlug":"japan","adminSlug":"fukuoka"},{"id":1793505,"name":"Taizhou","countryCode":"CN","countryName":"China","continent":"AS","adminName":"Jiangsu","population":1607108,"latitude":32.4907,"longitude":119.9081,"rank":266,"slug":"taizhou","countrySlug":"china","adminSlug":"jiangsu"},{"id":2037860,"name":"Daqing","countryCode":"CN","countryName":"China","continent":"AS","adminName":"Heilongjiang","population":1604027,"latitude":46.5833,"longitude":125,"rank":267,"slug":"daqing","countrySlug":"china","adminSlug":"heilongjiang"},{"id":1701668,"name":"Manila","countryCode":"PH","countryName":"Philippines","continent":"AS","adminName":"National Capital Region","population":1600000,"latitude":14.6042,"longitude":120.9822,"rank":268,"slug":"manila","countrySlug":"philippines","adminSlug":"national-capital-region"},{"id":1791236,"name":"Wuhu","countryCode":"CN","countryName":"China","continent":"AS","adminName":"Anhui","population":1598165,"latitude":31.3526,"longitude":118.4295,"rank":269,"slug":"wuhu","countrySlug":"china","adminSlug":"anhui"},{"id":3991164,"name":"Santiago de Queretaro","countryCode":"MX","countryName":"Mexico","continent":"NA","adminName":"Queretaro","population":1594212,"latitude":20.5881,"longitude":-100.3881,"rank":270,"slug":"santiago-de-queretaro","countrySlug":"mexico","adminSlug":"queretaro"},{"id":1813325,"name":"Dazhou","countryCode":"CN","countryName":"China","continent":"AS","adminName":"Sichuan","population":1589435,"latitude":31.2106,"longitude":107.4631,"rank":271,"slug":"dazhou","countrySlug":"china","adminSlug":"sichuan"},{"id":1787227,"name":"Yangzhou","countryCode":"CN","countryName":"China","continent":"AS","adminName":"Jiangsu","population":1584237,"latitude":32.3972,"longitude":119.4358,"rank":272,"slug":"yangzhou","countrySlug":"china","adminSlug":"jiangsu"},{"id":3998655,"name":"Leon de los Aldama","countryCode":"MX","countryName":"Mexico","continent":"NA","adminName":"Guanajuato","population":1579803,"latitude":21.1218,"longitude":-101.6825,"rank":273,"slug":"leon-de-los-aldama","countrySlug":"mexico","adminSlug":"guanajuato"},{"id":104515,"name":"Makkah","countryCode":"SA","countryName":"Saudi Arabia","continent":"AS","adminName":"Mecca Region","population":1578722,"latitude":21.4266,"longitude":39.8256,"rank":274,"slug":"makkah","countrySlug":"saudi-arabia","adminSlug":"mecca-region"},{"id":4560349,"name":"Philadelphia","countryCode":"US","countryName":"United States","continent":"NA","adminName":"Pennsylvania","population":1573916,"latitude":39.9524,"longitude":-75.1636,"rank":275,"slug":"philadelphia","countrySlug":"united-states","adminSlug":"pennsylvania"},{"id":1821306,"name":"Phnom Penh","countryCode":"KH","countryName":"Cambodia","continent":"AS","adminName":"Phnom Penh","population":1573544,"latitude":11.5625,"longitude":104.916,"rank":276,"slug":"phnom-penh","countrySlug":"cambodia","adminSlug":"phnom-penh"},{"id":1809498,"name":"Guilin","countryCode":"CN","countryName":"China","continent":"AS","adminName":"Guangxi","population":1572300,"latitude":25.2802,"longitude":110.2964,"rank":277,"slug":"guilin","countrySlug":"china","adminSlug":"guangxi"},{"id":170654,"name":"Damascus","countryCode":"SY","countryName":"Syria","continent":"AS","adminName":"Damascus Governorate","population":1569394,"latitude":33.5102,"longitude":36.2913,"rank":278,"slug":"damascus","countrySlug":"syria","adminSlug":"damascus-governorate"},{"id":1167528,"name":"Quetta","countryCode":"PK","countryName":"Pakistan","continent":"AS","adminName":"Balochistan","population":1565546,"latitude":30.1841,"longitude":67.0014,"rank":279,"slug":"quetta","countrySlug":"pakistan","adminSlug":"balochistan"},{"id":1784853,"name":"Zhaoqing","countryCode":"CN","countryName":"China","continent":"AS","adminName":"Guangdong","population":1553109,"latitude":23.0489,"longitude":112.4609,"rank":280,"slug":"zhaoqing","countrySlug":"china","adminSlug":"guangdong"},{"id":2326016,"name":"Onitsha","countryCode":"NG","countryName":"Nigeria","continent":"AF","adminName":"Anambra","population":1553000,"latitude":6.1498,"longitude":6.7857,"rank":281,"slug":"onitsha","countrySlug":"nigeria","adminSlug":"anambra"},{"id":1800627,"name":"Mianyang","countryCode":"CN","countryName":"China","continent":"AS","adminName":"Sichuan","population":1550000,"latitude":31.4678,"longitude":104.6817,"rank":282,"slug":"mianyang","countrySlug":"china","adminSlug":"sichuan"},{"id":2193733,"name":"Auckland","countryCode":"NZ","countryName":"New Zealand","continent":"OC","adminName":"Auckland","population":1547200,"latitude":-36.8485,"longitude":174.7635,"rank":283,"slug":"auckland","countrySlug":"new-zealand","adminSlug":"auckland"},{"id":418863,"name":"Isfahan","countryCode":"IR","countryName":"Iran","continent":"AS","adminName":"Isfahan","population":1547164,"latitude":32.6525,"longitude":51.6746,"rank":284,"slug":"isfahan","countrySlug":"iran","adminSlug":"isfahan"},{"id":12358576,"name":"Wanzhou","countryCode":"CN","countryName":"China","continent":"AS","adminName":"Chongqing","population":1545900,"latitude":30.7645,"longitude":108.3959,"rank":285,"slug":"wanzhou","countrySlug":"china","adminSlug":"chongqing"},{"id":1526273,"name":"Astana","countryCode":"KZ","countryName":"Kazakhstan","continent":"AS","adminName":"Astana","population":1544142,"latitude":51.1801,"longitude":71.446,"rank":286,"slug":"astana","countrySlug":"kazakhstan","adminSlug":"astana"},{"id":890299,"name":"Harare","countryCode":"ZW","countryName":"Zimbabwe","continent":"AF","adminName":"Harare","population":1542813,"latitude":-17.8277,"longitude":31.0534,"rank":287,"slug":"harare","countrySlug":"zimbabwe","adminSlug":"harare"},{"id":2274895,"name":"Monrovia","countryCode":"LR","countryName":"Liberia","continent":"AF","adminName":"Montserrado County","population":1542549,"latitude":6.3005,"longitude":-10.7969,"rank":288,"slug":"monrovia","countrySlug":"liberia","adminSlug":"montserrado-county"},{"id":1798449,"name":"Putian","countryCode":"CN","countryName":"China","continent":"AS","adminName":"Fujian","population":1539389,"latitude":25.4394,"longitude":119.0103,"rank":289,"slug":"putian","countrySlug":"china","adminSlug":"fujian"},{"id":1859642,"name":"Kawasaki","countryCode":"JP","countryName":"Japan","continent":"AS","adminName":"Kanagawa","population":1538262,"latitude":35.5206,"longitude":139.7172,"rank":290,"slug":"kawasaki","countrySlug":"japan","adminSlug":"kanagawa"},{"id":3462377,"name":"Goiania","countryCode":"BR","countryName":"Brazil","continent":"SA","adminName":"Goias","population":1536097,"latitude":-16.6786,"longitude":-49.2539,"rank":291,"slug":"goiania","countrySlug":"brazil","adminSlug":"goias"},{"id":4726206,"name":"San Antonio","countryCode":"US","countryName":"United States","continent":"NA","adminName":"Texas","population":1526656,"latitude":29.4241,"longitude":-98.4936,"rank":292,"slug":"san-antonio","countrySlug":"united-states","adminSlug":"texas"},{"id":1859171,"name":"Kobe","countryCode":"JP","countryName":"Japan","continent":"AS","adminName":"Hyogo","population":1525152,"latitude":34.6913,"longitude":135.183,"rank":293,"slug":"kobe","countrySlug":"japan","adminSlug":"hyogo"},{"id":2673730,"name":"Stockholm","countryCode":"SE","countryName":"Sweden","continent":"EU","adminName":"Stockholm","population":1515017,"latitude":59.3294,"longitude":18.0687,"rank":294,"slug":"stockholm","countrySlug":"sweden","adminSlug":"stockholm"},{"id":4013708,"name":"Ciudad Juarez","countryCode":"MX","countryName":"Mexico","continent":"NA","adminName":"Chihuahua","population":1512450,"latitude":31.7202,"longitude":-106.4608,"rank":295,"slug":"ciudad-juarez","countrySlug":"mexico","adminSlug":"chihuahua"},{"id":1586203,"name":"Can Tho","countryCode":"VN","countryName":"Vietnam","continent":"AS","adminName":"Can Tho City","population":1507187,"latitude":10.0371,"longitude":105.7883,"rank":296,"slug":"can-tho","countrySlug":"vietnam","adminSlug":"can-tho-city"},{"id":2867714,"name":"Munich","countryCode":"DE","countryName":"Germany","continent":"EU","adminName":"Bavaria","population":1505005,"latitude":48.1374,"longitude":11.5755,"rank":297,"slug":"munich","countrySlug":"germany","adminSlug":"bavaria"},{"id":1336135,"name":"Khulna","countryCode":"BD","countryName":"Bangladesh","continent":"AS","adminName":"Khulna Division","population":1500689,"latitude":22.8098,"longitude":89.5644,"rank":298,"slug":"khulna","countrySlug":"bangladesh","adminSlug":"khulna-division"},{"id":3405870,"name":"Belem","countryCode":"BR","countryName":"Brazil","continent":"SA","adminName":"Para","population":1499641,"latitude":-1.4558,"longitude":-48.5044,"rank":299,"slug":"belem","countrySlug":"brazil","adminSlug":"para"},{"id":1486209,"name":"Yekaterinburg","countryCode":"RU","countryName":"Russia","continent":"EU","adminName":"Sverdlovsk Oblast","population":1495066,"latitude":56.8573,"longitude":60.6153,"rank":300,"slug":"yekaterinburg","countrySlug":"russia","adminSlug":"sverdlovsk-oblast"},{"id":3452925,"name":"Porto Alegre","countryCode":"BR","countryName":"Brazil","continent":"SA","adminName":"Rio Grande do Sul","population":1488252,"latitude":-30.0328,"longitude":-51.2302,"rank":301,"slug":"porto-alegre","countrySlug":"brazil","adminSlug":"rio-grande-do-sul"},{"id":1786657,"name":"Yinchuan","countryCode":"CN","countryName":"China","continent":"AS","adminName":"Ningxia","population":1487579,"latitude":38.4681,"longitude":106.2731,"rank":302,"slug":"yinchuan","countrySlug":"china","adminSlug":"ningxia"},{"id":5125771,"name":"Manhattan","countryCode":"US","countryName":"United States","continent":"NA","adminName":"New York","population":1487536,"latitude":40.7834,"longitude":-73.9663,"rank":303,"slug":"manhattan","countrySlug":"united-states","adminSlug":"new-york"},{"id":8400694,"name":"Taizhou","countryCode":"CN","countryName":"China","continent":"AS","adminName":"Zhejiang","population":1485502,"latitude":28.6627,"longitude":121.4331,"rank":304,"slug":"taizhou-zhejiang","countrySlug":"china","adminSlug":"zhejiang"},{"id":3439389,"name":"Asuncion","countryCode":"PY","countryName":"Paraguay","continent":"SA","adminName":"Asuncion","population":1482200,"latitude":-25.2865,"longitude":-57.647,"rank":305,"slug":"asuncion","countrySlug":"paraguay","adminSlug":"asuncion"},{"id":1814870,"name":"Yiwu","countryCode":"CN","countryName":"China","continent":"AS","adminName":"Zhejiang","population":1481384,"latitude":29.3151,"longitude":120.0768,"rank":306,"slug":"yiwu","countrySlug":"china","adminSlug":"zhejiang"},{"id":3979770,"name":"Zapopan","countryCode":"MX","countryName":"Mexico","continent":"NA","adminName":"Jalisco","population":1476491,"latitude":20.7211,"longitude":-103.3874,"rank":307,"slug":"zapopan","countrySlug":"mexico","adminSlug":"jalisco"},{"id":1622786,"name":"Makassar","countryCode":"ID","countryName":"Indonesia","continent":"AS","adminName":"South Sulawesi","population":1474393,"latitude":-5.1486,"longitude":119.4319,"rank":308,"slug":"makassar","countrySlug":"indonesia","adminSlug":"south-sulawesi"},{"id":2078025,"name":"Adelaide","countryCode":"AU","countryName":"Australia","continent":"OC","adminName":"South Australia","population":1469163,"latitude":-34.9287,"longitude":138.5986,"rank":309,"slug":"adelaide","countrySlug":"australia","adminSlug":"south-australia"},{"id":1797353,"name":"Quanzhou","countryCode":"CN","countryName":"China","continent":"AS","adminName":"Fujian","population":1469157,"latitude":24.9139,"longitude":118.5858,"rank":310,"slug":"quanzhou","countrySlug":"china","adminSlug":"fujian"},{"id":1805528,"name":"Jinhua","countryCode":"CN","countryName":"China","continent":"AS","adminName":"Zhejiang","population":1463990,"latitude":29.1068,"longitude":119.6442,"rank":311,"slug":"jinhua","countrySlug":"china","adminSlug":"zhejiang"},{"id":1857910,"name":"Kyoto","countryCode":"JP","countryName":"Japan","continent":"AS","adminName":"Kyoto","population":1463723,"latitude":35.0211,"longitude":135.7538,"rank":312,"slug":"kyoto","countrySlug":"japan","adminSlug":"kyoto"},{"id":1806602,"name":"Cixi","countryCode":"CN","countryName":"China","continent":"AS","adminName":"Zhejiang","population":1457510,"latitude":30.1764,"longitude":121.2457,"rank":313,"slug":"cixi","countrySlug":"china","adminSlug":"zhejiang"},{"id":1791121,"name":"Changde","countryCode":"CN","countryName":"China","continent":"AS","adminName":"Hunan","population":1457419,"latitude":29.0321,"longitude":111.6984,"rank":314,"slug":"changde","countrySlug":"china","adminSlug":"hunan"},{"id":1735161,"name":"Kuala Lumpur","countryCode":"MY","countryName":"Malaysia","continent":"AS","adminName":"Kuala Lumpur","population":1453975,"latitude":3.1412,"longitude":101.6865,"rank":315,"slug":"kuala-lumpur","countrySlug":"malaysia","adminSlug":"kuala-lumpur"},{"id":308464,"name":"Kayseri","countryCode":"TR","countryName":"Turkey","continent":"AS","adminName":"Kayseri","population":1452458,"latitude":38.7322,"longitude":35.4853,"rank":316,"slug":"kayseri","countrySlug":"turkey","adminSlug":"kayseri"},{"id":1804879,"name":"Kaifeng","countryCode":"CN","countryName":"China","continent":"AS","adminName":"Henan","population":1451741,"latitude":34.7986,"longitude":114.3074,"rank":317,"slug":"kaifeng","countrySlug":"china","adminSlug":"henan"},{"id":2038632,"name":"Anshan","countryCode":"CN","countryName":"China","continent":"AS","adminName":"Liaoning","population":1450000,"latitude":41.1236,"longitude":122.99,"rank":318,"slug":"anshan","countrySlug":"china","adminSlug":"liaoning"},{"id":128747,"name":"Karaj","countryCode":"IR","countryName":"Iran","continent":"AS","adminName":"Alborz Province","population":1448075,"latitude":35.8327,"longitude":50.9915,"rank":319,"slug":"karaj","countrySlug":"iran","adminSlug":"alborz-province"},{"id":1283240,"name":"Kathmandu","countryCode":"NP","countryName":"Nepal","continent":"AS","adminName":"Bagmati Province","population":1442271,"latitude":27.7017,"longitude":85.3206,"rank":320,"slug":"kathmandu","countrySlug":"nepal","adminSlug":"bagmati-province"},{"id":1835235,"name":"Daejeon","countryCode":"KR","countryName":"South Korea","continent":"AS","adminName":"Daejeon","population":1441203,"latitude":36.3491,"longitude":127.3849,"rank":321,"slug":"daejeon","countrySlug":"south-korea","adminSlug":"daejeon"},{"id":10942359,"name":"Baoji","countryCode":"CN","countryName":"China","continent":"AS","adminName":"Shaanxi","population":1437802,"latitude":34.3678,"longitude":107.237,"rank":322,"slug":"baoji","countrySlug":"china","adminSlug":"shaanxi"},{"id":1793771,"name":"Suqian","countryCode":"CN","countryName":"China","continent":"AS","adminName":"Jiangsu","population":1437685,"latitude":33.9492,"longitude":118.2958,"rank":323,"slug":"suqian","countrySlug":"china","adminSlug":"jiangsu"},{"id":1803300,"name":"Liuzhou","countryCode":"CN","countryName":"China","continent":"AS","adminName":"Guangxi","population":1436599,"latitude":24.324,"longitude":109.407,"rank":324,"slug":"liuzhou","countrySlug":"china","adminSlug":"guangxi"},{"id":306571,"name":"Konya","countryCode":"TR","countryName":"Turkey","continent":"AS","adminName":"Konya","population":1433861,"latitude":37.8713,"longitude":32.4846,"rank":325,"slug":"konya","countrySlug":"turkey","adminSlug":"konya"},{"id":1787331,"name":"Zhangjiagang","countryCode":"CN","countryName":"China","continent":"AS","adminName":"Jiangsu","population":1432044,"latitude":31.865,"longitude":120.5389,"rank":326,"slug":"zhangjiagang","countrySlug":"china","adminSlug":"jiangsu"},{"id":8581443,"name":"South Tangerang","countryCode":"ID","countryName":"Indonesia","continent":"AS","adminName":"Banten","population":1429529,"latitude":-6.2886,"longitude":106.7179,"rank":327,"slug":"south-tangerang","countrySlug":"indonesia","adminSlug":"banten"},{"id":113646,"name":"Tabriz","countryCode":"IR","countryName":"Iran","continent":"AS","adminName":"East Azerbaijan","population":1424641,"latitude":38.08,"longitude":46.2919,"rank":328,"slug":"tabriz","countrySlug":"iran","adminSlug":"east-azerbaijan"},{"id":706483,"name":"Kharkiv","countryCode":"UA","countryName":"Ukraine","continent":"EU","adminName":"Kharkiv","population":1421125,"latitude":49.9818,"longitude":36.2548,"rank":329,"slug":"kharkiv","countrySlug":"ukraine","adminSlug":"kharkiv"},{"id":1797658,"name":"Jinjiang","countryCode":"CN","countryName":"China","continent":"AS","adminName":"Fujian","population":1416151,"latitude":24.8198,"longitude":118.5742,"rank":330,"slug":"jinjiang","countrySlug":"china","adminSlug":"fujian"},{"id":1816234,"name":"Bozhou","countryCode":"CN","countryName":"China","continent":"AS","adminName":"Anhui","population":1409436,"latitude":33.8772,"longitude":115.7703,"rank":331,"slug":"bozhou","countrySlug":"china","adminSlug":"anhui"},{"id":1797318,"name":"Qujing","countryCode":"CN","countryName":"China","continent":"AS","adminName":"Yunnan","population":1408500,"latitude":25.4833,"longitude":103.7833,"rank":332,"slug":"qujing","countrySlug":"china","adminSlug":"yunnan"},{"id":5391811,"name":"San Diego","countryCode":"US","countryName":"United States","continent":"NA","adminName":"California","population":1404452,"latitude":32.7157,"longitude":-117.1647,"rank":333,"slug":"san-diego","countrySlug":"united-states","adminSlug":"california"},{"id":1841811,"name":"Gwangju","countryCode":"KR","countryName":"South Korea","continent":"AS","adminName":"Gwangju","population":1401235,"latitude":35.1547,"longitude":126.9156,"rank":334,"slug":"gwangju","countrySlug":"south-korea","adminSlug":"gwangju"},{"id":1784990,"name":"Zhanjiang","countryCode":"CN","countryName":"China","continent":"AS","adminName":"Guangdong","population":1400709,"latitude":21.2339,"longitude":110.3875,"rank":335,"slug":"zhanjiang","countrySlug":"china","adminSlug":"guangdong"},{"id":2037355,"name":"Fushun","countryCode":"CN","countryName":"China","continent":"AS","adminName":"Liaoning","population":1400646,"latitude":41.8867,"longitude":123.9436,"rank":336,"slug":"fushun","countrySlug":"china","adminSlug":"liaoning"},{"id":1801792,"name":"Luoyang","countryCode":"CN","countryName":"China","continent":"AS","adminName":"Henan","population":1390581,"latitude":34.6735,"longitude":112.4368,"rank":337,"slug":"luoyang","countrySlug":"china","adminSlug":"henan"},{"id":4005539,"name":"Guadalajara","countryCode":"MX","countryName":"Mexico","continent":"NA","adminName":"Jalisco","population":1385629,"latitude":20.6774,"longitude":-103.3475,"rank":338,"slug":"guadalajara","countrySlug":"mexico","adminSlug":"jalisco"},{"id":5110266,"name":"The Bronx","countryCode":"US","countryName":"United States","continent":"NA","adminName":"New York","population":1385108,"latitude":40.8499,"longitude":-73.8664,"rank":339,"slug":"the-bronx","countrySlug":"united-states","adminSlug":"new-york"},{"id":1580240,"name":"Hue","countryCode":"VN","countryName":"Vietnam","continent":"AS","adminName":"Thua Thien Hue Province","population":1380000,"latitude":16.4619,"longitude":107.5955,"rank":340,"slug":"hue","countrySlug":"vietnam","adminSlug":"thua-thien-hue-province"},{"id":1802875,"name":"Guankou","countryCode":"CN","countryName":"China","continent":"AS","adminName":"Hunan","population":1380000,"latitude":28.1586,"longitude":113.6271,"rank":341,"slug":"guankou","countrySlug":"china","adminSlug":"hunan"},{"id":3173435,"name":"Milan","countryCode":"IT","countryName":"Italy","continent":"EU","adminName":"Lombardy","population":1371498,"latitude":45.4643,"longitude":9.1895,"rank":342,"slug":"milan","countrySlug":"italy","adminSlug":"lombardy"},{"id":2427123,"name":"N'Djamena","countryCode":"TD","countryName":"Chad","continent":"AF","adminName":"N'Djamena","population":1359526,"latitude":12.1067,"longitude":15.0444,"rank":343,"slug":"n-djamena","countrySlug":"chad","adminSlug":"n-djamena"},{"id":1808963,"name":"Handan","countryCode":"CN","countryName":"China","continent":"AS","adminName":"Hebei","population":1358318,"latitude":36.61,"longitude":114.4876,"rank":344,"slug":"handan","countrySlug":"china","adminSlug":"hebei"},{"id":1183460,"name":"Bannu","countryCode":"PK","countryName":"Pakistan","continent":"AS","adminName":"Khyber Pakhtunkhwa","population":1357890,"latitude":32.9853,"longitude":70.604,"rank":345,"slug":"bannu","countrySlug":"pakistan","adminSlug":"khyber-pakhtunkhwa"},{"id":1786764,"name":"Yichang","countryCode":"CN","countryName":"China","continent":"AS","adminName":"Hubei","population":1350150,"latitude":30.7144,"longitude":111.2847,"rank":346,"slug":"yichang","countrySlug":"china","adminSlug":"hubei"},{"id":1070940,"name":"Antananarivo","countryCode":"MG","countryName":"Madagascar","continent":"AF","adminName":"Analamanga","population":1349501,"latitude":-18.9137,"longitude":47.5361,"rank":347,"slug":"antananarivo","countrySlug":"madagascar","adminSlug":"analamanga"},{"id":1808198,"name":"Heze","countryCode":"CN","countryName":"China","continent":"AS","adminName":"Shandong","population":1346717,"latitude":35.2393,"longitude":115.4736,"rank":348,"slug":"heze","countrySlug":"china","adminSlug":"shandong"},{"id":3461786,"name":"Guarulhos","countryCode":"BR","countryName":"Brazil","continent":"SA","adminName":"Sao Paulo","population":1345364,"latitude":-23.4628,"longitude":-46.5333,"rank":349,"slug":"guarulhos","countrySlug":"brazil","adminSlug":"sao-paulo"},{"id":2293521,"name":"Abobo","countryCode":"CI","countryName":"Ivory Coast","continent":"AF","adminName":"Abidjan Autonomous District","population":1340083,"latitude":5.4161,"longitude":-4.0159,"rank":350,"slug":"abobo","countrySlug":"ivory-coast","adminSlug":"abidjan-autonomous-district"},{"id":2232593,"name":"Douala","countryCode":"CM","countryName":"Cameroon","continent":"AF","adminName":"Littoral","population":1338082,"latitude":4.0483,"longitude":9.7043,"rank":351,"slug":"douala","countrySlug":"cameroon","adminSlug":"littoral"},{"id":323777,"name":"Antalya","countryCode":"TR","countryName":"Turkey","continent":"AS","adminName":"Antalya","population":1335002,"latitude":36.9081,"longitude":30.6956,"rank":352,"slug":"antalya","countrySlug":"turkey","adminSlug":"antalya"},{"id":99532,"name":"Basrah","countryCode":"IQ","countryName":"Iraq","continent":"AS","adminName":"Basra","population":1326564,"latitude":30.5085,"longitude":47.7804,"rank":353,"slug":"basrah","countrySlug":"iraq","adminSlug":"basra"},{"id":4684888,"name":"Dallas","countryCode":"US","countryName":"United States","continent":"NA","adminName":"Texas","population":1326087,"latitude":32.7831,"longitude":-96.8067,"rank":354,"slug":"dallas","countrySlug":"united-states","adminSlug":"texas"},{"id":6940394,"name":"Saitama","countryCode":"JP","countryName":"Japan","continent":"AS","adminName":"Saitama","population":1324854,"latitude":35.9081,"longitude":139.6566,"rank":355,"slug":"saitama","countrySlug":"japan","adminSlug":"saitama"},{"id":2440485,"name":"Niamey","countryCode":"NE","countryName":"Niger","continent":"AF","adminName":"Niamey","population":1323691,"latitude":13.5137,"longitude":2.1098,"rank":356,"slug":"niamey","countrySlug":"niger","adminSlug":"niamey"},{"id":8533133,"name":"Liupanshui","countryCode":"CN","countryName":"China","continent":"AS","adminName":"Guizhou","population":1320825,"latitude":26.5944,"longitude":104.8333,"rank":357,"slug":"liupanshui","countrySlug":"china","adminSlug":"guizhou"},{"id":1684308,"name":"Taguig","countryCode":"PH","countryName":"Philippines","continent":"AS","adminName":"National Capital Region","population":1308085,"latitude":14.5243,"longitude":121.0792,"rank":358,"slug":"taguig","countrySlug":"philippines","adminSlug":"national-capital-region"},{"id":1801180,"name":"Maoming","countryCode":"CN","countryName":"China","continent":"AS","adminName":"Guangdong","population":1307802,"latitude":21.6663,"longitude":110.9136,"rank":359,"slug":"maoming","countrySlug":"china","adminSlug":"guangdong"},{"id":5913490,"name":"Calgary","countryCode":"CA","countryName":"Canada","continent":"NA","adminName":"Alberta","population":1306784,"latitude":51.0501,"longitude":-114.0853,"rank":360,"slug":"calgary","countrySlug":"canada","adminSlug":"alberta"},{"id":2210247,"name":"Tripoli","countryCode":"LY","countryName":"Libya","continent":"AF","adminName":"Tripoli","population":1302947,"latitude":32.8874,"longitude":13.1873,"rank":361,"slug":"tripoli","countrySlug":"libya","adminSlug":"tripoli"},{"id":109223,"name":"Madinah","countryCode":"SA","countryName":"Saudi Arabia","continent":"AS","adminName":"Medina Region","population":1300000,"latitude":24.4686,"longitude":39.6142,"rank":362,"slug":"madinah","countrySlug":"saudi-arabia","adminSlug":"medina-region"},{"id":2220957,"name":"Yaounde","countryCode":"CM","countryName":"Cameroon","continent":"AF","adminName":"Centre","population":1299369,"latitude":3.8667,"longitude":11.5167,"rank":363,"slug":"yaounde","countrySlug":"cameroon","adminSlug":"centre"},{"id":6295587,"name":"Batam","countryCode":"ID","countryName":"Indonesia","continent":"AS","adminName":"Riau","population":1296960,"latitude":1.1494,"longitude":104.0249,"rank":364,"slug":"batam","countrySlug":"indonesia","adminSlug":"riau"},{"id":1797551,"name":"Qinzhou","countryCode":"CN","countryName":"China","continent":"AS","adminName":"Guangxi","population":1296300,"latitude":21.9825,"longitude":108.6506,"rank":365,"slug":"qinzhou","countrySlug":"china","adminSlug":"guangxi"},{"id":1801934,"name":"Luohe","countryCode":"CN","countryName":"China","continent":"AS","adminName":"Henan","population":1294974,"latitude":33.5742,"longitude":114.0326,"rank":366,"slug":"luohe","countrySlug":"china","adminSlug":"henan"},{"id":1790587,"name":"Xiangyang","countryCode":"CN","countryName":"China","continent":"AS","adminName":"Hubei","population":1294733,"latitude":32.0422,"longitude":112.1448,"rank":367,"slug":"xiangyang","countrySlug":"china","adminSlug":"hubei"},{"id":1806408,"name":"Yangjiang","countryCode":"CN","countryName":"China","continent":"AS","adminName":"Guangdong","population":1292987,"latitude":21.8556,"longitude":111.9627,"rank":368,"slug":"yangjiang","countrySlug":"china","adminSlug":"guangdong"},{"id":1786760,"name":"Yixing","countryCode":"CN","countryName":"China","continent":"AS","adminName":"Jiangsu","population":1285785,"latitude":31.3606,"longitude":119.8202,"rank":369,"slug":"yixing","countrySlug":"china","adminSlug":"jiangsu"},{"id":1583992,"name":"Da Nang","countryCode":"VN","countryName":"Vietnam","continent":"AS","adminName":"Da Nang City","population":1276000,"latitude":16.0678,"longitude":108.2208,"rank":370,"slug":"da-nang","countrySlug":"vietnam","adminSlug":"da-nang-city"},{"id":250441,"name":"Amman","countryCode":"JO","countryName":"Jordan","continent":"AS","adminName":"Amman","population":1275857,"latitude":31.9552,"longitude":35.945,"rank":371,"slug":"amman","countrySlug":"jordan","adminSlug":"amman"},{"id":1723510,"name":"Budta","countryCode":"PH","countryName":"Philippines","continent":"AS","adminName":"Autonomous Region in Muslim Mindanao","population":1273715,"latitude":7.2042,"longitude":124.4397,"rank":372,"slug":"budta","countrySlug":"philippines","adminSlug":"autonomous-region-in-muslim-mindanao"},{"id":792680,"name":"Belgrade","countryCode":"RS","countryName":"Serbia","continent":"EU","adminName":"Central Serbia","population":1273651,"latitude":44.804,"longitude":20.4651,"rank":373,"slug":"belgrade","countrySlug":"serbia","adminSlug":"central-serbia"},{"id":1587923,"name":"Bien Hoa","countryCode":"VN","countryName":"Vietnam","continent":"AS","adminName":"Dong Nai","population":1272235,"latitude":10.9447,"longitude":106.8243,"rank":374,"slug":"bien-hoa","countrySlug":"vietnam","adminSlug":"dong-nai"},{"id":1797798,"name":"Qingpu","countryCode":"CN","countryName":"China","continent":"AS","adminName":"Shanghai","population":1271424,"latitude":31.1539,"longitude":121.1141,"rank":375,"slug":"qingpu","countrySlug":"china","adminSlug":"shanghai"},{"id":3441575,"name":"Montevideo","countryCode":"UY","countryName":"Uruguay","continent":"SA","adminName":"Montevideo Department","population":1270737,"latitude":-34.9033,"longitude":-56.1882,"rank":376,"slug":"montevideo","countrySlug":"uruguay","adminSlug":"montevideo-department"},{"id":1788046,"name":"Xuchang","countryCode":"CN","countryName":"China","continent":"AS","adminName":"Henan","population":1265536,"latitude":34.0319,"longitude":113.863,"rank":377,"slug":"xuchang","countrySlug":"china","adminSlug":"henan"},{"id":1783745,"name":"Zigong","countryCode":"CN","countryName":"China","continent":"AS","adminName":"Sichuan","population":1262064,"latitude":29.3416,"longitude":104.7769,"rank":378,"slug":"zigong","countrySlug":"china","adminSlug":"sichuan"},{"id":520555,"name":"Nizhniy Novgorod","countryCode":"RU","countryName":"Russia","continent":"EU","adminName":"Nizhny Novgorod Oblast","population":1259013,"latitude":56.3287,"longitude":44.002,"rank":379,"slug":"nizhniy-novgorod","countrySlug":"russia","adminSlug":"nizhny-novgorod-oblast"},{"id":1642548,"name":"Jepara","countryCode":"ID","countryName":"Indonesia","continent":"AS","adminName":"Central Java","population":1257912,"latitude":-6.5924,"longitude":110.671,"rank":380,"slug":"jepara","countrySlug":"indonesia","adminSlug":"central-java"},{"id":1040652,"name":"Maputo","countryCode":"MZ","countryName":"Mozambique","continent":"AF","adminName":"Maputo City","population":1254837,"latitude":-25.9655,"longitude":32.5832,"rank":381,"slug":"maputo","countrySlug":"mozambique","adminSlug":"maputo-city"},{"id":10630003,"name":"Xuzhou","countryCode":"CN","countryName":"China","continent":"AS","adminName":"Jiangsu","population":1253991,"latitude":34.2044,"longitude":117.2839,"rank":382,"slug":"xuzhou","countrySlug":"china","adminSlug":"jiangsu"},{"id":110336,"name":"Dammam","countryCode":"SA","countryName":"Saudi Arabia","continent":"AS","adminName":"Eastern Province","population":1252523,"latitude":26.4344,"longitude":50.1033,"rank":383,"slug":"dammam","countrySlug":"saudi-arabia","adminSlug":"eastern-province"},{"id":268743,"name":"Ra's Bayrut","countryCode":"LB","countryName":"Lebanon","continent":"AS","adminName":"Beirut","population":1251739,"latitude":33.9,"longitude":35.4833,"rank":384,"slug":"ra-s-bayrut","countrySlug":"lebanon","adminSlug":"beirut"},{"id":1799491,"name":"Neijiang","countryCode":"CN","countryName":"China","continent":"AS","adminName":"Sichuan","population":1251095,"latitude":29.5835,"longitude":105.0622,"rank":385,"slug":"neijiang","countrySlug":"china","adminSlug":"sichuan"},{"id":115019,"name":"Shiraz","countryCode":"IR","countryName":"Iran","continent":"AS","adminName":"Fars","population":1249942,"latitude":29.6103,"longitude":52.5311,"rank":386,"slug":"shiraz","countrySlug":"iran","adminSlug":"fars"},{"id":1808316,"name":"Heshan","countryCode":"CN","countryName":"China","continent":"AS","adminName":"Hunan","population":1249807,"latitude":28.5694,"longitude":112.3473,"rank":387,"slug":"heshan","countrySlug":"china","adminSlug":"hunan"},{"id":214481,"name":"Kananga","countryCode":"CD","countryName":"Democratic Republic of the Congo","continent":"AF","adminName":"Kasai-Central","population":1247168,"latitude":-5.8962,"longitude":22.4166,"rank":388,"slug":"kananga","countrySlug":"democratic-republic-of-the-congo","adminSlug":"kasai-central"},{"id":551487,"name":"Kazan","countryCode":"RU","countryName":"Russia","continent":"EU","adminName":"Tatarstan Republic","population":1243500,"latitude":55.7887,"longitude":49.1221,"rank":389,"slug":"kazan","countrySlug":"russia","adminSlug":"tatarstan-republic"},{"id":1805518,"name":"Jining","countryCode":"CN","countryName":"China","continent":"AS","adminName":"Shandong","population":1241012,"latitude":35.405,"longitude":116.5814,"rank":390,"slug":"jining","countrySlug":"china","adminSlug":"shandong"},{"id":3648522,"name":"Barquisimeto","countryCode":"VE","countryName":"Venezuela","continent":"SA","adminName":"Lara","population":1240714,"latitude":10.0647,"longitude":-69.357,"rank":391,"slug":"barquisimeto","countrySlug":"venezuela","adminSlug":"lara"},{"id":349076,"name":"Shubra al Khaymah","countryCode":"EG","countryName":"Egypt","continent":"AF","adminName":"Qalyubia","population":1240289,"latitude":30.1251,"longitude":31.2505,"rank":392,"slug":"shubra-al-khaymah","countrySlug":"egypt","adminSlug":"qalyubia"},{"id":1798439,"name":"Putuo","countryCode":"CN","countryName":"China","continent":"AS","adminName":"Shanghai","population":1239100,"latitude":31.251,"longitude":121.3897,"rank":393,"slug":"putuo","countrySlug":"china","adminSlug":"shanghai"},